latitude,longitude,Offers CS?,School District Name,School Name,State,Agency ID,State Abbr,Grades 9-12 Students [District] 2023-24,Male Students [District] 2023-24,Female Students [District] 2023-24,American Indian/Alaska Native Students [District] 2023-24,Asian or Asian/Pacific Islander Students [District] 2023-24,Hispanic Students [District] 2023-24,Black or African American Students [District] 2023-24,White Students [District] 2023-24,Nat. Hawaiian or Other Pacific Isl. Students [District] 2023-24,Two or More Races Students [District] 2023-24,Pupil/Teacher Ratio [District] 2023-24,Full-Time Equivalent (FTE) Teachers [District] 2023-24,Total Staff [District] 2023-24,Librarians/media specialists [District] 2023-24,Media Support Staff [District] 2023-24,Total Revenue - Local Sources (TLOCREV) [District Finance] 2020-21,Total Revenue - State Sources (TSTREV) [District Finance] 2020-21,Total Revenue - Federal Sources (TFEDREV) [District Finance] 2020-21,Total Revenue (TOTALREV) per Pupil (V33) [District Finance] 2020-21,Diploma Recipients & Other Completers [District] 2022-23,Estimated Total Population,Estimated Population 5-17,Estimated number of relevant children 5 to 17 years old in poverty who are related to the householder
34.178658,-86.319462,1,MARSHALL COUNTY,Douglas High School,AL,0100006,AL,1755,3127,2913,35,37,1800,84,3996,7,81,16.94,356.45,644.95,12,0,14816000,43954000,13429000,12539,401,"50,814","9,175","1,803"
39.449831,-75.692653,1,APPOQUINIMINK SCHOOL DISTRICT,Middletown High School,DE,1000080,DE,3824,6658,6287,67,1438,1246,3720,5767,20,687,14.78,876,1590.91,10,0,64977000,181778000,8859000,21455,852,"70,781","14,343",831
34.7192,-86.7425,1,MADISON CITY,Bob Jones High School,AL,0100008,AL,4089,6529,6207,47,1144,1147,2452,7043,22,881,17.08,745.7,1227.47,12,12,67437000,85046000,16719000,14334,993,"61,043","12,952",729
34.705886,-86.791802,1,MADISON CITY,James Clemens High School,AL,0100008,AL,4089,6529,6207,47,1144,1147,2452,7043,22,881,17.08,745.7,1227.47,12,12,67437000,85046000,16719000,14334,993,"61,043","12,952",729
33.6612,-85.82,1,ANNISTON CITY,Anniston High School,AL,0100090,AL,480,992,917,0,3,92,1620,89,0,105,18.41,103.67,198.27,4.5,0,8080000,12593000,6800000,14475,101,"21,578","2,949","1,105"
39.704197,-75.683986,0,RED CLAY CONSOLIDATED SCHOOL DISTRICT,MEADOWOOD PROGRAM,DE,1001300,DE,3487,7476,7070,41,682,4329,3461,5439,12,582,13.61,1068.9,2116.83,19,0,130216000,165818000,24830000,21310,898,"141,890","21,605","3,061"
30.4198,-87.5998,1,BALDWIN COUNTY,Elberta High School,AL,0100270,AL,9773,16351,15467,102,319,4305,3530,20903,20,2639,16.12,1973.33,3835.45,41.5,9.36,223706000,183848000,42447000,14896,2056,"228,058","37,231","4,792"
30.498068,-87.8836,1,BALDWIN COUNTY,Fairhope High School,AL,0100270,AL,9773,16351,15467,102,319,4305,3530,20903,20,2639,16.12,1973.33,3835.45,41.5,9.36,223706000,183848000,42447000,14896,2056,"228,058","37,231","4,792"
31.868278,-85.44613,0,BARBOUR COUNTY,Barbour County High School,AL,0100300,AL,188,336,343,1,0,94,516,58,0,10,19.4,35,79,3,0,2255000,4864000,3219000,15048,28,"12,029","1,390",492
32.9472,-87.1426,1,BIBB COUNTY,Bibb County High School,AL,0100360,AL,848,1607,1470,4,6,215,666,2097,0,89,17.24,178.5,371,7.5,0,8065000,24990000,5523000,12377,183,"21,868","3,179",649
33.747043,-85.686986,1,CALHOUN COUNTY,White Plains High School,AL,0100540,AL,2451,4138,3883,18,47,533,1109,6096,24,194,16.34,490.8,949.2,16,11,23453000,60713000,12619000,11943,586,"54,858","9,264","1,899"
34.1638,-85.6587,1,CHEROKEE COUNTY,Cherokee County High School,AL,0100630,AL,1148,2034,1883,14,7,142,148,3482,6,118,17.37,225.48,458.11,7,0,12960000,28010000,8964000,13027,254,"25,666","3,581",717
32.749,-86.5088,1,CHILTON COUNTY,Verbena High School,AL,0100660,AL,2340,3999,3931,11,34,1621,823,5103,1,337,18.27,434,782,12,0,14462000,54187000,16970000,11112,479,"46,431","8,316","1,576"
31.431297,-86.937172,0,CONECUH COUNTY,Genesis Innovative School,AL,0100870,AL,511,709,702,1,2,59,1028,289,1,31,20.06,70.35,176.27,5.5,1,3649000,13773000,3619000,12683,115,"11,174","1,647",686
31.590445,-86.255144,1,CRENSHAW COUNTY,Brantley High School,AL,0100960,AL,619,1101,987,2,23,95,646,1236,0,86,14.67,142.31,299.51,3,0,5326000,16818000,6150000,12797,141,"13,101","2,276",597
34.712183,-85.675401,1,DEKALB COUNTY,Ider School,AL,0101140,AL,2579,4527,4177,924,33,3007,77,4535,0,128,15.8,551,999.54,13,0,17977000,77579000,17157000,13221,571,"57,492","10,248","2,521"
32.6338,-86.0296,1,ELMORE COUNTY,Elmore County High School,AL,0101290,AL,3639,6094,5726,31,73,685,3082,7429,6,514,19,622,1222,15,5,31589000,87778000,27897000,12784,827,"82,705","13,462","2,097"
33.995108,-86.037233,1,GADSDEN CITY,Gadsden City High School,AL,0101620,AL,1309,2446,2426,29,34,1056,2184,1451,2,116,16.33,298.26,531.46,10.5,0,13743000,34962000,13827000,12907,273,"33,885","5,394","1,745"
33.4605,-86.7905,1,HOMEWOOD CITY,Homewood High School,AL,0101760,AL,1308,2269,2195,6,89,463,681,3064,1,160,14.22,313.9,579.15,5,3,38253000,26281000,4825000,16514,286,"25,951","4,412",330
33.7881,-85.7784,1,JACKSONVILLE CITY,Jacksonville High School,AL,0101860,AL,532,844,873,1,15,108,524,912,0,157,17.61,97.5,174.23,2,1,5130000,11320000,2704000,11580,104,"14,384","1,667",366
33.658482,-86.699674,1,JEFFERSON COUNTY,Center Point High School,AL,0101920,AL,11663,18334,17337,52,145,5164,18518,10898,22,872,17.7,2015.1,3404.6,59,0,133013000,249920000,70779000,12840,2570,"236,837","40,887","8,388"
32.309751,-87.797303,1,LINDEN CITY,Linden High School,AL,0102130,AL,126,217,189,0,0,7,379,16,0,4,12.79,31.75,63.75,1.5,0,1187000,4125000,1367000,13305,41,"3,971",616,206
32.4006,-85.7336,1,MACON COUNTY,Booker T Washington High,AL,0102190,AL,571,908,861,4,3,46,1616,26,0,74,17.02,103.93,208.37,5,0,6983000,15315000,8259000,16332,121,"18,370","2,213",876
34.02702,-87.762709,1,MARION COUNTY,Brilliant School,AL,0102310,AL,1012,1716,1642,7,23,244,139,2849,2,94,15.77,213,338.07,7.5,0,7830000,24166000,6446000,11810,236,"23,412","3,664",837
34.280192,-87.833809,1,MARION COUNTY,Hackleburg High School,AL,0102310,AL,1012,1716,1642,7,23,244,139,2849,2,94,15.77,213,338.07,7.5,0,7830000,24166000,6446000,11810,236,"23,412","3,664",837
33.450742,-86.915913,1,MIDFIELD CITY,Midfield High School,AL,0102350,AL,335,534,499,0,0,89,925,6,2,11,21.52,48,92,0,0,3557000,7920000,4437000,15571,53,"5,120","1,053",378
30.6072,-88.0735,1,MOBILE COUNTY,Ben C Rain High School,AL,0102370,AL,14508,25813,25116,515,1012,3265,25621,17947,47,2522,17.69,2879.25,5883.13,88.5,5,190410000,350122000,134689000,12871,2961,"382,440","64,529","15,570"
32.3432,-86.2626,1,MONTGOMERY COUNTY,Johnson Abernathy Graetz High School,AL,0102430,AL,7050,13227,13208,109,901,3132,20393,1427,22,451,18.82,1404.84,2685.11,44.5,0,73147000,187426000,86740000,12676,1318,"213,618","36,833","9,265"
33.276126,-86.869538,1,SHELBY COUNTY,Helena High School,AL,0103030,AL,6812,10669,10268,63,432,2340,3794,13797,31,480,17.28,1211.4,2563.65,32,0,97368000,139497000,23369000,12733,1514,"142,708","24,780","2,149"
33.703272,-86.370328,1,ST CLAIR COUNTY,Saint Clair County High School,AL,0103062,AL,2879,4997,4595,10,57,637,1036,7318,7,527,20.11,476.9,818.9,13.5,0,22968000,75728000,13852000,11964,633,"62,056","10,577","1,360"
33.4915,-86.1602,1,TALLADEGA COUNTY,Talladega County Central High,AL,0103180,AL,2058,3668,3489,10,22,234,2293,4357,1,240,18.43,388.26,739.2,14.5,0.5,27170000,51049000,11314000,12729,443,"48,699","7,159","1,419"
31.8857,-87.7367,1,THOMASVILLE CITY,Thomasville High School,AL,0103300,AL,294,528,501,4,6,14,552,442,0,11,16.6,62,125,3,0,3756000,9810000,1917000,14024,79,"4,978",799,242
33.1982,-87.5491,1,TUSCALOOSA CITY,Central High School,AL,0103360,AL,3064,5635,5572,41,252,794,7557,2388,13,162,16.99,659.66,1162.95,20,1,63839000,74729000,21702000,14917,619,"103,334","12,260","3,264"
33.3078,-87.6084,1,TUSCALOOSA COUNTY,Tuscaloosa County High School,AL,0103390,AL,5529,9839,9389,37,127,2443,5975,10255,15,376,17.4,1105.04,1851.06,37,0,56870000,128904000,33623000,11691,1184,"134,039","23,548","4,070"
31.46182,-88.251362,1,WASHINGTON COUNTY,Washington County High School,AL,0103480,AL,753,1248,1194,240,2,31,542,1557,4,66,16.23,150.45,326.01,6,0,7052000,17875000,5766000,11751,184,"15,022","2,295",618
34.079762,-87.213166,1,WINSTON COUNTY,Meek High School,AL,0103580,AL,707,1233,1075,2,0,45,12,2222,0,27,17.18,134.36,259.45,7,0,8003000,18399000,5531000,14055,160,"15,739","2,295",494
30.28955,-87.618274,1,ORANGE BEACH CITY,Orange Beach Middle/High School,AL,0103581,AL,435,649,619,7,2,38,24,1140,1,56,15.28,83,140.5,1,0,†,†,†,†,100,"8,854","1,051",94
38.86992,-76.982691,1,DISTRICT OF COLUMBIA PUBLIC SCHOOLS,Anacostia Senior High School,DC,1100030,DC,13408,25926,24865,63,1039,11173,27966,8906,25,1619,11.14,4564.64,8332.21,111.17,16.05,1498201000,0,166591000,33365,2577,"678,972","88,006","17,387"
38.914918,-77.004311,1,DISTRICT OF COLUMBIA PUBLIC SCHOOLS,McKinley Technical High School,DC,1100030,DC,13408,25926,24865,63,1039,11173,27966,8906,25,1619,11.14,4564.64,8332.21,111.17,16.05,1498201000,0,166591000,33365,2577,"678,972","88,006","17,387"
29.680505,-82.434024,0,ALACHUA,Santa Fe College High School Dual Enrollment,FL,1200030,FL,8826,14712,14037,45,1506,4073,9770,11169,28,2158,17.29,1662.71,3742.47,44,30.02,151297000,145542000,60084000,12612,2017,"285,994","37,532","6,304"
30.1665,-85.6158,1,BAY,Rutherford High School,FL,1200090,FL,8052,14240,13435,76,502,3804,4027,17050,79,2137,17.56,1576.47,3605.64,27.56,9.67,142562000,116256000,91773000,13868,1867,"190,769","29,719","4,342"
30.179513,-85.680762,1,BAY,Central High School,FL,1200090,FL,8052,14240,13435,76,502,3804,4027,17050,79,2137,17.56,1576.47,3605.64,27.56,9.67,142562000,116256000,91773000,13868,1867,"190,769","29,719","4,342"
26.0462,-80.198,1,BROWARD,Hollywood Hills High School,FL,1200180,FL,80461,129671,121737,478,9235,96604,96143,42011,380,6557,20.33,12366.38,27217.61,136.39,249.21,1492430000,1128235000,358404000,11448,18054,"1,962,531","298,407","43,661"
25.976179,-80.261758,1,BROWARD,Miramar High School,FL,1200180,FL,80461,129671,121737,478,9235,96604,96143,42011,380,6557,20.33,12366.38,27217.61,136.39,249.21,1492430000,1128235000,358404000,11448,18054,"1,962,531","298,407","43,661"
26.031518,-80.19799,1,BROWARD,Sheridan Technical High School,FL,1200180,FL,80461,129671,121737,478,9235,96604,96143,42011,380,6557,20.33,12366.38,27217.61,136.39,249.21,1492430000,1128235000,358404000,11448,18054,"1,962,531","298,407","43,661"
25.9701,-80.3743,1,BROWARD,Everglades High School,FL,1200180,FL,80461,129671,121737,478,9235,96604,96143,42011,380,6557,20.33,12366.38,27217.61,136.39,249.21,1492430000,1128235000,358404000,11448,18054,"1,962,531","298,407","43,661"
26.246587,-80.183665,1,BROWARD,Broward Virtual Franchise,FL,1200180,FL,80461,129671,121737,478,9235,96604,96143,42011,380,6557,20.33,12366.38,27217.61,136.39,249.21,1492430000,1128235000,358404000,11448,18054,"1,962,531","298,407","43,661"
28.907059,-82.579975,0,CITRUS,Crystal River High School,FL,1200270,FL,4932,8289,7600,48,221,1832,701,12092,24,971,16.27,976.5,2327.41,19,1,75389000,68544000,26955000,11087,915,"166,696","18,789","3,616"
28.818469,-82.49719,0,CITRUS,Srmi @ Renaissance Center,FL,1200270,FL,4932,8289,7600,48,221,1832,701,12092,24,971,16.27,976.5,2327.41,19,1,75389000,68544000,26955000,11087,915,"166,696","18,789","3,616"
26.2956,-81.5776,1,COLLIER,Palmetto Ridge High School,FL,1200330,FL,15496,24772,23510,107,722,25896,5512,14826,37,1182,17.51,2756.96,5793.54,50,2,537503000,88431000,66023000,14936,3566,"404,310","48,429","7,961"
25.5712,-80.3305,0,MIAMI-DADE,Cutler Bay Senior High School,FL,1200390,FL,107428,171408,164092,120,3422,253532,56207,20277,128,1814,20.04,16743,34420,123,19,2430012000,1177529000,717310000,12939,22717,"2,686,867","388,529","63,027"
25.8952,-80.3073,1,MIAMI-DADE,Hialeah-Miami Lakes Senior High,FL,1200390,FL,107428,171408,164092,120,3422,253532,56207,20277,128,1814,20.04,16743,34420,123,19,2430012000,1177529000,717310000,12939,22717,"2,686,867","388,529","63,027"
25.839,-80.214,1,MIAMI-DADE,Miami Northwestern Senior High,FL,1200390,FL,107428,171408,164092,120,3422,253532,56207,20277,128,1814,20.04,16743,34420,123,19,2430012000,1177529000,717310000,12939,22717,"2,686,867","388,529","63,027"
25.9651,-80.239,0,MIAMI-DADE,Robert Renick Educational Center,FL,1200390,FL,107428,171408,164092,120,3422,253532,56207,20277,128,1814,20.04,16743,34420,123,19,2430012000,1177529000,717310000,12939,22717,"2,686,867","388,529","63,027"
25.915785,-80.14443,0,MIAMI-DADE,Amikids Miami-Dade North,FL,1200390,FL,107428,171408,164092,120,3422,253532,56207,20277,128,1814,20.04,16743,34420,123,19,2430012000,1177529000,717310000,12939,22717,"2,686,867","388,529","63,027"
25.765094,-80.236406,1,MIAMI-DADE,International Studies Charter High School,FL,1200390,FL,107428,171408,164092,120,3422,253532,56207,20277,128,1814,20.04,16743,34420,123,19,2430012000,1177529000,717310000,12939,22717,"2,686,867","388,529","63,027"
25.916,-80.2952,1,MIAMI-DADE,Miami Lakes Educational Center And Technical College,FL,1200390,FL,107428,171408,164092,120,3422,253532,56207,20277,128,1814,20.04,16743,34420,123,19,2430012000,1177529000,717310000,12939,22717,"2,686,867","388,529","63,027"
25.4742,-80.4743,0,MIAMI-DADE,School For Advanced Studies Homestead,FL,1200390,FL,107428,171408,164092,120,3422,253532,56207,20277,128,1814,20.04,16743,34420,123,19,2430012000,1177529000,717310000,12939,22717,"2,686,867","388,529","63,027"
25.804998,-80.198905,1,MIAMI-DADE,Young Men'S Preparatory Academy,FL,1200390,FL,107428,171408,164092,120,3422,253532,56207,20277,128,1814,20.04,16743,34420,123,19,2430012000,1177529000,717310000,12939,22717,"2,686,867","388,529","63,027"
25.439978,-80.494101,0,MIAMI-DADE,Miami Community Charter High School,FL,1200390,FL,107428,171408,164092,120,3422,253532,56207,20277,128,1814,20.04,16743,34420,123,19,2430012000,1177529000,717310000,12939,22717,"2,686,867","388,529","63,027"
25.8964,-80.2553,0,MIAMI-DADE,North Park High School,FL,1200390,FL,107428,171408,164092,120,3422,253532,56207,20277,128,1814,20.04,16743,34420,123,19,2430012000,1177529000,717310000,12939,22717,"2,686,867","388,529","63,027"
25.560902,-80.329703,0,MIAMI-DADE,Mater Academy Bay High School,FL,1200390,FL,107428,171408,164092,120,3422,253532,56207,20277,128,1814,20.04,16743,34420,123,19,2430012000,1177529000,717310000,12939,22717,"2,686,867","388,529","63,027"
25.78893,-80.190942,1,MIAMI-DADE,Somerset College Preparatory Academy South High School,FL,1200390,FL,107428,171408,164092,120,3422,253532,56207,20277,128,1814,20.04,16743,34420,123,19,2430012000,1177529000,717310000,12939,22717,"2,686,867","388,529","63,027"
25.78893,-80.190942,0,MIAMI-DADE,Somerset Lakeside High School,FL,1200390,FL,107428,171408,164092,120,3422,253532,56207,20277,128,1814,20.04,16743,34420,123,19,2430012000,1177529000,717310000,12939,22717,"2,686,867","388,529","63,027"
27.2227,-81.8393,0,DESOTO,Desoto County High School,FL,1200420,FL,1293,2194,2092,5,24,2244,514,1366,2,131,19.13,224,593,3,4,13727000,29376000,10237000,11560,298,"35,979","4,617","1,206"
27.225,-81.8686,0,DESOTO,Desoto Secondary School,FL,1200420,FL,1293,2194,2092,5,24,2244,514,1366,2,131,19.13,224,593,3,4,13727000,29376000,10237000,11560,298,"35,979","4,617","1,206"
30.3423,-81.7283,0,DUVAL,Palm Avenue Excep. Student Center,FL,1200480,FL,36517,65755,62216,596,5631,22310,51866,39790,356,7422,22.4,5712,11094,59,0,562672000,669274000,204517000,11327,7715,"1,030,822","165,786","29,086"
30.250956,-81.615773,0,DUVAL,Duval Virtual Instruction Program,FL,1200480,FL,36517,65755,62216,596,5631,22310,51866,39790,356,7422,22.4,5712,11094,59,0,562672000,669274000,204517000,11327,7715,"1,030,822","165,786","29,086"
30.336649,-81.57204,0,DUVAL,Lone Star High School,FL,1200480,FL,36517,65755,62216,596,5631,22310,51866,39790,356,7422,22.4,5712,11094,59,0,562672000,669274000,204517000,11327,7715,"1,030,822","165,786","29,086"
30.33776,-81.696501,0,DUVAL,The Bridge To Success Academy At W Jacksonville,FL,1200480,FL,36517,65755,62216,596,5631,22310,51866,39790,356,7422,22.4,5712,11094,59,0,562672000,669274000,204517000,11327,7715,"1,030,822","165,786","29,086"
30.447045,-87.222532,0,ESCAMBIA,County Administrative Annex,FL,1200510,FL,11220,19201,18002,152,796,3897,12713,16525,138,2982,19.38,1919.55,4976.74,42.5,0,164745000,206276000,70275000,11473,2385,"326,928","49,755","10,116"
30.9668,-87.4064,0,ESCAMBIA,Northview High School,FL,1200510,FL,11220,19201,18002,152,796,3897,12713,16525,138,2982,19.38,1919.55,4976.74,42.5,0,164745000,206276000,70275000,11473,2385,"326,928","49,755","10,116"
27.558135,-81.814149,1,HARDEE,Hardee Virtual Franchise,FL,1200750,FL,1405,2463,2262,2,38,2950,266,1386,2,81,16.58,285,634.3,6,3,12788000,30640000,9026000,10620,318,"25,760","4,775","1,096"
28.5664,-82.3777,0,HERNANDO,Hernando Virtual Instruction Program,FL,1200810,FL,7507,12341,11674,45,352,6615,1969,13546,24,1464,17.03,1410,3025,12,13,88837000,126819000,34698000,11067,1671,"212,807","30,273","4,336"
27.9911,-82.1278,1,HILLSBOROUGH,Plant City Senior High School,FL,1200870,FL,68982,114661,109491,411,10050,88735,46314,66484,378,11780,18.32,12233.16,25505.63,221.34,2,1003023000,1190659000,370070000,11710,14627,"1,535,564","243,125","34,179"
27.851293,-82.312454,1,HILLSBOROUGH,Riverview High School,FL,1200870,FL,68982,114661,109491,411,10050,88735,46314,66484,378,11780,18.32,12233.16,25505.63,221.34,2,1003023000,1190659000,370070000,11710,14627,"1,535,564","243,125","34,179"
28.1347,-82.3845,1,HILLSBOROUGH,Freedom High School,FL,1200870,FL,68982,114661,109491,411,10050,88735,46314,66484,378,11780,18.32,12233.16,25505.63,221.34,2,1003023000,1190659000,370070000,11710,14627,"1,535,564","243,125","34,179"
27.852681,-82.272172,0,HILLSBOROUGH,Bell Creek Academy High School,FL,1200870,FL,68982,114661,109491,411,10050,88735,46314,66484,378,11780,18.32,12233.16,25505.63,221.34,2,1003023000,1190659000,370070000,11710,14627,"1,535,564","243,125","34,179"
27.967552,-82.342244,0,HILLSBOROUGH,Lake Academy,FL,1200870,FL,68982,114661,109491,411,10050,88735,46314,66484,378,11780,18.32,12233.16,25505.63,221.34,2,1003023000,1190659000,370070000,11710,14627,"1,535,564","243,125","34,179"
30.785936,-85.694454,0,HOLMES,Holmes County High School,FL,1200900,FL,973,1632,1569,3,11,144,112,2758,0,173,16.11,198.67,430.61,4,4.73,5534000,23102000,7056000,11400,201,"19,944","3,061",795
30.7096,-84.9217,0,JACKSON,Sneads High School,FL,1200960,FL,1647,3124,2970,15,30,353,1881,3351,3,461,14.74,413.5,918,10,1,18625000,41545000,20888000,12973,346,"48,622","6,840","1,710"
28.807719,-81.8887,0,LAKE,Leesburg High School,FL,1201050,FL,14974,24765,23520,238,1156,14718,7818,21805,144,2406,17.91,2696.39,5991.86,37.5,1,236370000,226804000,59465000,11958,3094,"424,462","60,691","7,612"
28.806648,-81.728995,1,LAKE,Tavares High School,FL,1201050,FL,14974,24765,23520,238,1156,14718,7818,21805,144,2406,17.91,2696.39,5991.86,37.5,1,236370000,226804000,59465000,11958,3094,"424,462","60,691","7,612"
28.835929,-81.688387,1,LAKE,Lake Virtual Franchise,FL,1201050,FL,14974,24765,23520,238,1156,14718,7818,21805,144,2406,17.91,2696.39,5991.86,37.5,1,236370000,226804000,59465000,11958,3094,"424,462","60,691","7,612"
26.6632,-81.9147,0,LEE,North Fort Myers High School,FL,1201080,FL,32165,51659,48405,131,1555,48976,13479,32621,70,3232,22.65,4417.76,11102.25,4.8,35.93,698258000,350803000,136206000,12486,6767,"834,573","105,057","16,661"
26.6441,-81.851,0,LEE,Royal Palm Exceptional School Center,FL,1201080,FL,32165,51659,48405,131,1555,48976,13479,32621,70,3232,22.65,4417.76,11102.25,4.8,35.93,698258000,350803000,136206000,12486,6767,"834,573","105,057","16,661"
26.60689,-81.860311,0,LEE,Pace School For Girls,FL,1201080,FL,32165,51659,48405,131,1555,48976,13479,32621,70,3232,22.65,4417.76,11102.25,4.8,35.93,698258000,350803000,136206000,12486,6767,"834,573","105,057","16,661"
26.6332,-81.855,0,LEE,Sw Fl Addiction Services-The Vince Smith Center,FL,1201080,FL,32165,51659,48405,131,1555,48976,13479,32621,70,3232,22.65,4417.76,11102.25,4.8,35.93,698258000,350803000,136206000,12486,6767,"834,573","105,057","16,661"
26.5997,-81.8536,0,LEE,Lee Virtual Instruction Program,FL,1201080,FL,32165,51659,48405,131,1555,48976,13479,32621,70,3232,22.65,4417.76,11102.25,4.8,35.93,698258000,350803000,136206000,12486,6767,"834,573","105,057","16,661"
30.471068,-83.409697,0,MADISON,Madison Virtual Instruction Program,FL,1201200,FL,695,1189,1111,3,3,185,1044,986,4,75,18.29,125.75,345.78,3,0,5624000,16457000,5388000,11327,149,"18,519","2,529",688
27.4683,-82.5507,1,MANATEE,Southeast High School,FL,1201230,FL,16005,26785,26110,51,1132,19676,6424,22893,42,2677,17.02,3107.03,6536.54,52,6,372339000,193210000,77087000,13067,3106,"441,095","56,958","7,060"
29.304307,-82.188527,0,MARION,Ocala Center For Success And Independence,FL,1201260,FL,13804,23477,22070,145,812,13543,8911,19584,97,2455,18.95,2404,6285,48,6,167650000,231349000,70231000,11395,2780,"409,959","57,626","12,669"
29.19006,-82.136481,0,MARION,Pace Center For Girls Inc.,FL,1201260,FL,13804,23477,22070,145,812,13543,8911,19584,97,2455,18.95,2404,6285,48,6,167650000,231349000,70231000,11395,2780,"409,959","57,626","12,669"
27.170326,-80.250423,1,MARTIN,Martin County High School,FL,1201290,FL,6094,9437,8833,22,328,6377,1201,9712,12,618,17.19,1063.05,2544.05,20,13,191628000,48632000,25572000,14574,1473,"163,315","19,617","3,015"
27.1424,-80.2328,0,MARTIN,Willoughby Learning Center,FL,1201290,FL,6094,9437,8833,22,328,6377,1201,9712,12,618,17.19,1063.05,2544.05,20,13,191628000,48632000,25572000,14574,1473,"163,315","19,617","3,015"
27.18113,-80.238121,0,MARTIN,Martin Virtual Instruction Program,FL,1201290,FL,6094,9437,8833,22,328,6377,1201,9712,12,618,17.19,1063.05,2544.05,20,13,191628000,48632000,25572000,14574,1473,"163,315","19,617","3,015"
27.134454,-80.21801,0,MARTIN,Indiantown High School,FL,1201290,FL,6094,9437,8833,22,328,6377,1201,9712,12,618,17.19,1063.05,2544.05,20,13,191628000,48632000,25572000,14574,1473,"163,315","19,617","3,015"
30.7895,-86.5602,1,OKALOOSA,Crestview High School,FL,1201380,FL,9983,16590,15836,108,561,4931,3426,20069,137,3194,18.71,1733.07,3462.16,4,33,149201000,160844000,48091000,11328,2133,"218,464","35,983","4,381"
30.425105,-86.666123,0,OKALOOSA,Okaloosa Academy,FL,1201380,FL,9983,16590,15836,108,561,4931,3426,20069,137,3194,18.71,1733.07,3462.16,4,33,149201000,160844000,48091000,11328,2133,"218,464","35,983","4,381"
27.236529,-80.831553,0,OKEECHOBEE,Okeechobee Virtual Instruction Program,FL,1201410,FL,1935,3374,2963,59,56,2830,388,2813,9,182,18.41,344.24,760.95,5.5,0,22457000,37404000,11947000,11465,389,"41,427","6,416","1,472"
28.4696,-81.4769,1,ORANGE,Dr. Phillips High,FL,1201440,FL,66834,106286,100529,408,9989,91751,48919,49286,680,5782,18.07,11444,24439,204,13,1457844000,910627000,433520000,14074,14273,"1,471,416","229,086","33,520"
28.601514,-81.385671,0,ORANGE,Pace Center For Girls,FL,1201440,FL,66834,106286,100529,408,9989,91751,48919,49286,680,5782,18.07,11444,24439,204,13,1457844000,910627000,433520000,14074,14273,"1,471,416","229,086","33,520"
28.456971,-81.397736,0,ORANGE,Project Compass,FL,1201440,FL,66834,106286,100529,408,9989,91751,48919,49286,680,5782,18.07,11444,24439,204,13,1457844000,910627000,433520000,14074,14273,"1,471,416","229,086","33,520"
28.5737,-81.4128,1,ORANGE,Orlando Science Middle High Charter,FL,1201440,FL,66834,106286,100529,408,9989,91751,48919,49286,680,5782,18.07,11444,24439,204,13,1457844000,910627000,433520000,14074,14273,"1,471,416","229,086","33,520"
28.478516,-81.471501,0,ORANGE,Universal Education Center,FL,1201440,FL,66834,106286,100529,408,9989,91751,48919,49286,680,5782,18.07,11444,24439,204,13,1457844000,910627000,433520000,14074,14273,"1,471,416","229,086","33,520"
28.506442,-81.375503,0,ORANGE,Ucp Transitional Learning Academy Charter,FL,1201440,FL,66834,106286,100529,408,9989,91751,48919,49286,680,5782,18.07,11444,24439,204,13,1457844000,910627000,433520000,14074,14273,"1,471,416","229,086","33,520"
30.200772,-81.572353,0,OSCEOLA,Florida Cyber Charter Academy At Osceola,FL,1201470,FL,23738,37915,36374,187,1614,46553,8940,14770,177,2048,19.11,3888.25,8996.53,50,9,346199000,385643000,109117000,12252,5104,"437,784","78,115","10,958"
28.262109,-81.523334,0,OSCEOLA,Oasis Residential Center,FL,1201470,FL,23738,37915,36374,187,1614,46553,8940,14770,177,2048,19.11,3888.25,8996.53,50,9,346199000,385643000,109117000,12252,5104,"437,784","78,115","10,958"
26.8771,-80.1053,1,PALM BEACH,William T. Dwyer High School,FL,1201500,FL,60390,97465,92312,1067,5687,71898,52174,53442,282,5227,16.57,11453.27,22545.4,165,101.67,1769229000,655190000,320128000,14672,13596,"1,533,801","211,292","27,735"
26.7078,-80.1688,0,PALM BEACH,Turning Points Academy,FL,1201500,FL,60390,97465,92312,1067,5687,71898,52174,53442,282,5227,16.57,11453.27,22545.4,165,101.67,1769229000,655190000,320128000,14672,13596,"1,533,801","211,292","27,735"
26.94748,-80.140306,0,PALM BEACH,The Learning Academy At The Els Center Of Excellence,FL,1201500,FL,60390,97465,92312,1067,5687,71898,52174,53442,282,5227,16.57,11453.27,22545.4,165,101.67,1769229000,655190000,320128000,14672,13596,"1,533,801","211,292","27,735"
26.528857,-80.196163,0,PALM BEACH,Somerset Academy Canyons High School,FL,1201500,FL,60390,97465,92312,1067,5687,71898,52174,53442,282,5227,16.57,11453.27,22545.4,165,101.67,1769229000,655190000,320128000,14672,13596,"1,533,801","211,292","27,735"
26.816263,-80.085391,0,PALM BEACH,Palm Beach Virtual Instruction (Course Offerings),FL,1201500,FL,60390,97465,92312,1067,5687,71898,52174,53442,282,5227,16.57,11453.27,22545.4,165,101.67,1769229000,655190000,320128000,14672,13596,"1,533,801","211,292","27,735"
26.702635,-80.085956,0,PALM BEACH,Florida Futures Academy,FL,1201500,FL,60390,97465,92312,1067,5687,71898,52174,53442,282,5227,16.57,11453.27,22545.4,165,101.67,1769229000,655190000,320128000,14672,13596,"1,533,801","211,292","27,735"
26.667308,-80.23615,0,PALM BEACH,Somerset Academy Wellington High School,FL,1201500,FL,60390,97465,92312,1067,5687,71898,52174,53442,282,5227,16.57,11453.27,22545.4,165,101.67,1769229000,655190000,320128000,14672,13596,"1,533,801","211,292","27,735"
28.2617,-82.4813,1,PASCO,Land O'Lakes High School,FL,1201530,FL,26349,43913,41942,221,3729,22877,7119,46416,157,5336,17.29,4966.48,11633.49,1,1,326123000,452872000,109279000,11517,5692,"632,996","97,462","11,185"
28.189543,-82.326795,1,PASCO,Wiregrass Ranch High School,FL,1201530,FL,26349,43913,41942,221,3729,22877,7119,46416,157,5336,17.29,4966.48,11633.49,1,1,326123000,452872000,109279000,11517,5692,"632,996","97,462","11,185"
28.376404,-82.549228,1,PASCO,Pasco eSchool,FL,1201530,FL,26349,43913,41942,221,3729,22877,7119,46416,157,5336,17.29,4966.48,11633.49,1,1,326123000,452872000,109279000,11517,5692,"632,996","97,462","11,185"
28.274193,-82.67736,0,PASCO,Baycare Behavioral Health,FL,1201530,FL,26349,43913,41942,221,3729,22877,7119,46416,157,5336,17.29,4966.48,11633.49,1,1,326123000,452872000,109279000,11517,5692,"632,996","97,462","11,185"
27.9199,-82.786,1,PINELLAS,Largo High School,FL,1201560,FL,29538,46664,44357,129,3613,18576,17424,45805,247,5227,16.13,5643.73,12584.95,120,8,663342000,353875000,186028000,12525,7168,"961,596","109,177","16,167"
28.1272,-82.7013,1,PINELLAS,East Lake High School,FL,1201560,FL,29538,46664,44357,129,3613,18576,17424,45805,247,5227,16.13,5643.73,12584.95,120,8,663342000,353875000,186028000,12525,7168,"961,596","109,177","16,167"
28.010796,-82.711176,0,PINELLAS,Enterprise Charter High School,FL,1201560,FL,29538,46664,44357,129,3613,18576,17424,45805,247,5227,16.13,5643.73,12584.95,120,8,663342000,353875000,186028000,12525,7168,"961,596","109,177","16,167"
27.9111,-81.5959,0,POLK,Roosevelt Academy,FL,1201590,FL,34162,57143,53898,254,1725,47091,23274,35461,172,3064,18.8,5907.9,13596,82,49,377885000,627924000,180292000,11803,7046,"818,330","133,828","23,848"
28.076588,-81.654236,0,POLK,Ridge Teen Parent Program,FL,1201590,FL,34162,57143,53898,254,1725,47091,23274,35461,172,3064,18.8,5907.9,13596,82,49,377885000,627924000,180292000,11803,7046,"818,330","133,828","23,848"
28.037481,-81.973021,1,POLK,Polk Full Time Eschool,FL,1201590,FL,34162,57143,53898,254,1725,47091,23274,35461,172,3064,18.8,5907.9,13596,82,49,377885000,627924000,180292000,11803,7046,"818,330","133,828","23,848"
28.03163,-81.910961,0,POLK,Real Academy (Reaching Every Adolescent Learner),FL,1201590,FL,34162,57143,53898,254,1725,47091,23274,35461,172,3064,18.8,5907.9,13596,82,49,377885000,627924000,180292000,11803,7046,"818,330","133,828","23,848"
27.0745,-82.2248,0,SARASOTA,North Port High School,FL,1201680,FL,14461,23358,21956,69,1287,10573,3285,27130,30,2940,15.14,2993.47,6444.82,4,51.6,507828000,77061000,57272000,15068,3234,"469,013","49,764","6,120"
28.779445,-81.283002,1,SEMINOLE,Seminole High School,FL,1201710,FL,21815,33305,32138,188,4310,20941,9419,27204,148,3233,17.14,3817.1,7169.41,2,5,312270000,331823000,80400000,10940,4820,"484,271","74,905","7,323"
28.6732,-81.2185,1,SEMINOLE,Oviedo High School,FL,1201710,FL,21815,33305,32138,188,4310,20941,9419,27204,148,3233,17.14,3817.1,7169.41,2,5,312270000,331823000,80400000,10940,4820,"484,271","74,905","7,323"
28.6873,-81.3441,1,SEMINOLE,Lyman High School,FL,1201710,FL,21815,33305,32138,188,4310,20941,9419,27204,148,3233,17.14,3817.1,7169.41,2,5,312270000,331823000,80400000,10940,4820,"484,271","74,905","7,323"
30.080927,-81.563244,1,ST. JOHNS,Creekside High School,FL,1201740,FL,16861,26494,24940,84,3183,6678,2959,35255,82,3193,17.76,2896.17,5986.07,41,51.6,294768000,198497000,35976000,11880,3726,"320,110","54,426","2,956"
27.329757,-80.447604,0,ST. LUCIE,Mosaic Digital Academy (St. Lucie Virtual Franchise),FL,1201770,FL,16016,24284,22703,71,681,16325,15696,11871,66,2277,19.91,2360.3,5606.29,34.75,6,256460000,209192000,66706000,12742,3592,"373,586","54,769","6,154"
30.0153,-82.3397,0,UNION,Union County High School,FL,1201890,FL,615,1230,1140,4,6,92,273,1828,0,167,15.46,153.3,358.5,0,2,2851000,17877000,3233000,10222,150,"15,532","2,633",473
29.2463,-81.458,1,VOLUSIA,Td Taylor Middle High School,FL,1201920,FL,20465,32190,30552,105,1222,15070,10115,32761,96,3373,17.04,3681.15,7789.29,66,0,339066000,277862000,100610000,11746,4635,"590,357","76,562","13,612"
29.2384,-81.0166,0,VOLUSIA,Riverview Learning Center,FL,1201920,FL,20465,32190,30552,105,1222,15070,10115,32761,96,3373,17.04,3681.15,7789.29,66,0,339066000,277862000,100610000,11746,4635,"590,357","76,562","13,612"
33.046,-85.0344,1,TROUP COUNTY,Lagrange High School,GA,1300001,GA,3655,6292,5986,24,220,1257,5311,4835,7,624,14.13,868.8,1826.8,15,7.9,74247000,71909000,21765000,13809,802,"70,742","12,646","3,328"
33.753637,-84.420896,1,ATLANTA PUBLIC SCHOOLS,Booker T. Washington High School,GA,1300120,GA,13869,25133,24527,137,566,4096,35116,8017,44,1684,12.04,4123,9608.7,77,12.5,837855000,194257000,95526000,22105,2837,"503,945","60,345","12,717"
33.944456,-83.657318,1,BARROW COUNTY,Barrow Arts And Sciences Academy,GA,1300290,GA,4727,7877,7400,17,692,4149,2295,7139,2,983,13.49,1132.3,2066.2,16.1,17.8,73130000,94155000,17801000,13147,972,"92,638","17,083","2,457"
34.282129,-84.762336,1,BARTOW COUNTY,Cass High School,GA,1300330,GA,4357,7273,6883,28,150,2547,1377,9281,18,755,14.73,960.9,1956.3,19,0,91931000,75835000,18584000,13970,862,"90,567","15,553","2,043"
33.7324,-85.0255,0,CARROLL COUNTY,Temple High School,GA,1300840,GA,4835,8353,7946,34,101,1970,3100,9986,6,1102,15.27,1067.2,2056.5,23,1,69124000,101628000,26934000,13184,945,"98,412","18,079","2,911"
33.5427,-84.3428,1,CLAYTON COUNTY,Jonesboro High School,GA,1301230,GA,16363,25688,25144,160,1507,12464,34375,721,25,1580,14.87,3419.1,7404.1,60,26,237641000,351462000,121904000,13634,3333,"298,300","59,250","15,129"
33.8961,-84.6788,1,COBB COUNTY,Mceachern High School,GA,1301290,GA,36112,54499,51859,235,6284,27323,31757,34953,94,5712,14.24,7468.4,13789.4,114.5,99,805884000,566914000,204659000,14691,8164,"714,728","121,437","13,314"
33.9259,-84.6674,1,COBB COUNTY,Hillgrove High School,GA,1301290,GA,36112,54499,51859,235,6284,27323,31757,34953,94,5712,14.24,7468.4,13789.4,114.5,99,805884000,566914000,204659000,14691,8164,"714,728","121,437","13,314"
33.4686,-84.6666,1,COWETA COUNTY,Northgate High School,GA,1301500,GA,7408,11737,11303,70,586,2981,5815,12335,13,1240,14.41,1598.4,3241,33,0,147339000,123194000,22120000,13158,1749,"155,892","26,861","3,160"
33.3469,-84.658,1,COWETA COUNTY,East Coweta High School,GA,1301500,GA,7408,11737,11303,70,586,2981,5815,12335,13,1240,14.41,1598.4,3241,33,0,147339000,123194000,22120000,13158,1749,"155,892","26,861","3,160"
33.8982,-84.306,1,DEKALB COUNTY,Chamblee High School,GA,1301740,GA,26951,46700,44698,387,5934,20474,51517,10184,100,2802,14.37,6360,13155.4,126.7,118.3,812193000,573731000,156674000,16504,5144,"698,018","113,387","21,545"
33.7595,-84.2673,1,DEKALB COUNTY,Dekalb School Of The Arts,GA,1301740,GA,26951,46700,44698,387,5934,20474,51517,10184,100,2802,14.37,6360,13155.4,126.7,118.3,812193000,573731000,156674000,16504,5144,"698,018","113,387","21,545"
32.103759,-83.799753,1,DOOLY COUNTY,Dooly County High School,GA,1301800,GA,352,562,551,1,4,263,732,86,0,27,14.76,75.4,186.5,2,3,7415000,6450000,5491000,16334,76,"10,981","1,214",399
32.093044,-83.783882,1,DOOLY COUNTY,DOOLY COUNTY PREP ACADEMY,GA,1301800,GA,352,562,551,1,4,263,732,86,0,27,14.76,75.4,186.5,2,3,7415000,6450000,5491000,16334,76,"10,981","1,214",399
32.539286,-82.927015,0,DUBLIN CITY,MOORE STREET FACILITY,GA,1301870,GA,624,1169,1192,7,12,65,2048,170,0,59,12.53,188.4,378.9,5,0,6605000,12840000,10340000,12961,131,"16,234","2,982",978
32.1879,-81.334,1,EFFINGHAM COUNTY,South Effingham High School,GA,1301980,GA,4064,7446,6948,23,207,1712,2487,9064,11,890,13.8,1043,2033.3,14,13,56611000,87649000,15423000,12262,883,"71,541","14,256","1,454"
34.0995,-84.3364,1,FULTON COUNTY,Milton High School,GA,1302280,GA,30310,44636,43407,222,11615,14238,36592,21704,50,3622,14.39,6120.1,12593,92,81.6,912211000,405996000,107358000,15787,6859,"615,147","109,662","13,666"
34.299754,-83.844685,1,GAINESVILLE CITY,Gainesville High School,GA,1302310,GA,2356,4191,3953,2,222,5049,1458,1102,3,308,14.93,545.6,1052.7,9,9,46390000,41920000,13244000,13165,514,"45,378","7,481","1,308"
30.8723,-84.1999,1,GRADY COUNTY,Cairo High School,GA,1302460,GA,1298,2288,2175,17,24,1299,1317,1676,0,130,13.54,329.6,634.4,7,0,13966000,34171000,11122000,13061,261,"26,066","4,805","1,246"
33.8595,-84.1139,1,GWINNETT COUNTY,Parkview High School,GA,1302550,GA,61692,93301,88913,383,21721,64522,58553,29039,162,7834,14.2,12830.2,24132.5,141,92.5,1095514000,1053035000,196341000,13218,12577,"968,538","190,574","26,577"
34.01,-84.1438,1,GWINNETT COUNTY,Duluth High School,GA,1302550,GA,61692,93301,88913,383,21721,64522,58553,29039,162,7834,14.2,12830.2,24132.5,141,92.5,1095514000,1053035000,196341000,13218,12577,"968,538","190,574","26,577"
33.9488,-84.0003,1,GWINNETT COUNTY,Central Gwinnett High School,GA,1302550,GA,61692,93301,88913,383,21721,64522,58553,29039,162,7834,14.2,12830.2,24132.5,141,92.5,1095514000,1053035000,196341000,13218,12577,"968,538","190,574","26,577"
33.8837,-84.04,1,GWINNETT COUNTY,Brookwood High School,GA,1302550,GA,61692,93301,88913,383,21721,64522,58553,29039,162,7834,14.2,12830.2,24132.5,141,92.5,1095514000,1053035000,196341000,13218,12577,"968,538","190,574","26,577"
34.078935,-83.911771,1,GWINNETT COUNTY,Seckinger High School,GA,1302550,GA,61692,93301,88913,383,21721,64522,58553,29039,162,7834,14.2,12830.2,24132.5,141,92.5,1095514000,1053035000,196341000,13218,12577,"968,538","190,574","26,577"
33.438467,-84.136988,1,HENRY COUNTY,Mcdonough High School,GA,1302820,GA,15465,21933,21325,101,1183,5407,27331,6791,53,2392,16.42,2635,5229.5,48.5,43.1,267900000,216103000,38910000,12336,3458,"254,613","48,743","7,077"
33.380105,-84.255041,1,HENRY COUNTY,Hampton High School,GA,1302820,GA,15465,21933,21325,101,1183,5407,27331,6791,53,2392,16.42,2635,5229.5,48.5,43.1,267900000,216103000,38910000,12336,3458,"254,613","48,743","7,077"
32.4675,-83.7258,1,HOUSTON COUNTY,Perry High School,GA,1302880,GA,9387,15756,15070,65,854,3631,12580,11480,26,2190,15.12,2038.9,4347.4,38,4,141696000,213397000,68070000,14257,1945,"171,974","33,245","5,443"
31.5776,-83.2394,0,IRWIN COUNTY,IRWIN COUNTY HIGH SCHOOL,GA,1302910,GA,502,883,749,0,8,86,568,910,0,60,13.28,122.9,251.3,2,0,5950000,13367000,4360000,14332,120,"9,120","1,582",463
34.1184,-83.2123,1,MADISON COUNTY,Madison County High School,GA,1303480,GA,1486,2664,2466,2,151,720,578,3401,0,278,13.56,378.4,759.2,8,5,21540000,40458000,8728000,14228,280,"32,191","5,585",825
33.599542,-83.449301,1,MORGAN COUNTY,Morgan County High School,GA,1303780,GA,1065,1794,1701,15,28,263,751,2293,0,145,13.9,251.4,517.3,4,3.9,24818000,19045000,5792000,15316,245,"21,460","3,602",567
34.7778,-84.786,1,MURRAY COUNTY,Murray County High School,GA,1303840,GA,2174,3482,3276,16,32,1814,39,4735,1,121,14.33,471.7,794.1,9.9,5,25447000,48630000,13102000,12660,454,"41,035","7,235","1,336"
33.8925,-84.8334,1,PAULDING COUNTY,Paulding County High School,GA,1304020,GA,10480,16313,15518,80,444,4170,9980,15231,40,1886,14.87,2140.4,4020.3,33,33,138557000,197445000,35581000,12400,2371,"183,164","35,179","3,573"
33.089052,-84.344551,0,PIKE COUNTY,ZEBULON HIGH SCHOOL,GA,1304170,GA,1139,1854,1694,0,12,119,209,3108,1,99,14.57,243.5,455.5,4,4,14646000,22568000,4896000,12353,294,"20,461","3,651",437
33.356,-82.0016,1,RICHMOND COUNTY,Cross Creek High School,GA,1304380,GA,8573,14984,14400,47,172,1947,22326,3439,127,1326,11.73,2505.2,5317.9,55,0,150406000,185351000,77104000,14191,1641,"205,414","33,910","10,069"
33.6674,-84.0074,1,ROCKDALE COUNTY,Rockdale County High School,GA,1304410,GA,5241,7747,7637,42,160,2951,10419,1054,48,710,13.3,1156.4,2407,18.5,0,96420000,107722000,24841000,14592,1239,"95,989","17,374","3,150"
32.8251,-83.2136,0,WILKINSON COUNTY,Wilkinson County High School,GA,1305790,GA,368,571,505,0,5,75,601,307,0,88,13.23,81.3,207.4,2,1,8264000,6881000,6208000,18471,87,"8,725","1,433",473
21.385067,-157.74776,0,HAWAII DEPARTMENT OF EDUCATION,Kailua High School,HI,1500030,HI,49583,88269,81039,223,40198,32288,2206,18764,42135,33494,13.98,12112.91,23107.87,83.5,48.8,19108000,2851764000,371018000,18374,11424,"1,435,138","215,961","24,159"
19.721774,-155.096713,1,HAWAII DEPARTMENT OF EDUCATION,Hilo High School,HI,1500030,HI,49583,88269,81039,223,40198,32288,2206,18764,42135,33494,13.98,12112.91,23107.87,83.5,48.8,19108000,2851764000,371018000,18374,11424,"1,435,138","215,961","24,159"
19.509758,-155.915333,1,HAWAII DEPARTMENT OF EDUCATION,Konawaena High School,HI,1500030,HI,49583,88269,81039,223,40198,32288,2206,18764,42135,33494,13.98,12112.91,23107.87,83.5,48.8,19108000,2851764000,371018000,18374,11424,"1,435,138","215,961","24,159"
20.888993,-156.658132,1,HAWAII DEPARTMENT OF EDUCATION,Lahainaluna High School,HI,1500030,HI,49583,88269,81039,223,40198,32288,2206,18764,42135,33494,13.98,12112.91,23107.87,83.5,48.8,19108000,2851764000,371018000,18374,11424,"1,435,138","215,961","24,159"
21.958728,-159.359981,0,HAWAII DEPARTMENT OF EDUCATION,Kauai High School,HI,1500030,HI,49583,88269,81039,223,40198,32288,2206,18764,42135,33494,13.98,12112.91,23107.87,83.5,48.8,19108000,2851764000,371018000,18374,11424,"1,435,138","215,961","24,159"
21.315597,-158.007986,1,HAWAII DEPARTMENT OF EDUCATION,James Campbell High School,HI,1500030,HI,49583,88269,81039,223,40198,32288,2206,18764,42135,33494,13.98,12112.91,23107.87,83.5,48.8,19108000,2851764000,371018000,18374,11424,"1,435,138","215,961","24,159"
21.279228,-157.77329,1,HAWAII DEPARTMENT OF EDUCATION,Kalani High School,HI,1500030,HI,49583,88269,81039,223,40198,32288,2206,18764,42135,33494,13.98,12112.91,23107.87,83.5,48.8,19108000,2851764000,371018000,18374,11424,"1,435,138","215,961","24,159"
21.387435,-158.007369,1,HAWAII DEPARTMENT OF EDUCATION,Hawaii Technology Academy-PCS,HI,1500030,HI,49583,88269,81039,223,40198,32288,2206,18764,42135,33494,13.98,12112.91,23107.87,83.5,48.8,19108000,2851764000,371018000,18374,11424,"1,435,138","215,961","24,159"
43.831859,-115.833654,1,BASIN SCHOOL DISTRICT,IDAHO CITY HIGH SCHOOL,ID,1600180,ID,104,172,175,0,3,12,0,321,1,10,13.58,25.55,49.31,0,0.63,683000,2819000,882000,12970,21,"4,062",481,56
44.515763,-116.045756,0,CASCADE DISTRICT,CASCADE JR/SR HIGH SCHOOL,ID,1600630,ID,60,109,97,0,0,11,1,191,1,2,11.44,18,32.1,0,0,1156000,1991000,908000,18022,8,"2,784",294,49
42.526505,-113.804174,0,CASSIA COUNTY JOINT DISTRICT,BURLEY SENIOR HIGH SCHOOL,ID,1600660,ID,1679,2876,2631,11,15,1943,16,3456,6,60,17.72,310.82,528.37,1,6.4,7673000,34881000,9659000,9685,407,"25,167","5,735",701
47.697979,-116.805501,1,COEUR D'ALENE DISTRICT,COEUR D'ALENE VIRTUAL ACADMEY,ID,1600780,ID,3246,5014,4639,57,64,845,52,8111,25,499,17.36,556.07,1024.26,2,9.46,29795000,59221000,15572000,10447,658,"93,480","14,738","1,472"
47.333407,-116.890619,0,PLUMMER-WORLEY JOINT DISTRICT,LAKESIDE HIGH SCHOOL,ID,1600815,ID,123,186,173,173,0,40,1,86,0,59,10.28,34.91,74.27,0,1.24,999000,3239000,3022000,19105,14,"4,440",800,109
43.872692,-116.484128,0,EMMETT INDEPENDENT DISTRICT,BLACK CANYON JR/SR HIGH SCHOOL,ID,1601020,ID,821,1348,1218,12,15,387,6,2053,9,84,17.3,148.32,275.8,0,3.2,2550000,17026000,5900000,10268,155,"21,071","3,540",416
43.864037,-116.508638,0,EMMETT INDEPENDENT DISTRICT,EMMETT HIGH SCHOOL,ID,1601020,ID,821,1348,1218,12,15,387,6,2053,9,84,17.3,148.32,275.8,0,3.2,2550000,17026000,5900000,10268,155,"21,071","3,540",416
44.072548,-111.439605,1,FREMONT COUNTY JOINT DISTRICT,NORTH FREMONT JR/SR HIGH SCHOOL,ID,1601110,ID,656,1174,1054,16,11,401,8,1752,3,37,17.52,127.15,237.02,1,0.9,5462000,14071000,4347000,11122,138,"12,958","2,203",295
43.493676,-112.027763,0,IDAHO FALLS DISTRICT,EMERSON HIGH SCHOOL,ID,1601530,ID,3192,5165,4956,43,51,2264,38,7237,9,479,18.35,551.63,1035.91,4,7.06,18191000,59669000,15616000,9526,695,"65,996","13,256","1,651"
43.493202,-112.019154,0,IDAHO FALLS DISTRICT,D91 ONLINE ACADEMY - SECONDARY,ID,1601530,ID,3192,5165,4956,43,51,2264,38,7237,9,479,18.35,551.63,1035.91,4,7.06,18191000,59669000,15616000,9526,695,"65,996","13,256","1,651"
42.727382,-114.519763,0,JEROME JOINT DISTRICT,FALLS CITY ACADEMY,ID,1601590,ID,1231,2093,1985,16,11,2376,17,1627,8,23,18.38,221.92,438.06,1,2.6,6344000,25583000,7998000,9805,229,"22,271","4,922",639
47.399425,-116.670258,0,KOOTENAI DISTRICT,KOOTENAI JR/SR HIGH SCHOOL,ID,1601740,ID,61,92,111,2,1,9,2,189,0,0,13.1,15.5,40.18,0,0,1102000,1795000,480000,22364,6,"2,292",303,40
43.613737,-116.416251,1,JOINT SCHOOL DISTRICT NO. 2,MERIDIAN HIGH SCHOOL,ID,1602100,ID,14008,20039,18952,171,963,5181,837,29686,163,1990,18.53,2103.94,3562.65,18.99,33.89,85753000,242415000,39580000,9680,2989,"265,628","49,709","2,762"
43.69458,-116.336867,0,JOINT SCHOOL DISTRICT NO. 2,EAGLE ACADEMY,ID,1602100,ID,14008,20039,18952,171,963,5181,837,29686,163,1990,18.53,2103.94,3562.65,18.99,33.89,85753000,242415000,39580000,9680,2989,"265,628","49,709","2,762"
43.613737,-116.416251,0,JOINT SCHOOL DISTRICT NO. 2,ADA PROFESSIONAL-TECHNICAL CENTER,ID,1602100,ID,14008,20039,18952,171,963,5181,837,29686,163,1990,18.53,2103.94,3562.65,18.99,33.89,85753000,242415000,39580000,9680,2989,"265,628","49,709","2,762"
43.659975,-116.375522,0,JOINT SCHOOL DISTRICT NO. 2,CENTRAL ACADEMY HIGH SCHOOL,ID,1602100,ID,14008,20039,18952,171,963,5181,837,29686,163,1990,18.53,2103.94,3562.65,18.99,33.89,85753000,242415000,39580000,9680,2989,"265,628","49,709","2,762"
42.6191,-113.677586,0,MINIDOKA COUNTY JOINT DISTRICT,MINI-CASSIA JUVENILE DETENTION CENTER,ID,1602190,ID,1344,2255,2139,25,9,2047,11,2273,8,21,17.18,255.72,457.74,1,2.98,6155000,31226000,6690000,10362,283,"23,427","5,008",623
46.493562,-116.263802,1,OROFINO JOINT DISTRICT,OROFINO HIGH SCHOOL,ID,1602520,ID,434,638,460,22,4,85,1,956,2,28,14.08,77.98,151.65,0,1.24,4181000,9426000,2655000,15990,106,"9,349","1,101",172
42.80779,-112.372264,1,POCATELLO DISTRICT,CENTURY HIGH SCHOOL,ID,1602640,ID,4083,6161,5747,429,91,1652,66,9087,58,525,18.71,636.44,1143.99,0,4.75,19306000,71766000,24238000,9702,991,"83,192","15,534","1,753"
43.373425,-112.135306,0,SHELLEY JOINT DISTRICT,SHELLEY SENIOR HIGH SCHOOL,ID,1602910,ID,824,1356,1203,8,18,376,11,2129,11,6,20.75,123.32,228.97,0,3.02,3399000,13752000,3466000,9171,177,"11,213","2,642",285
44.677803,-113.360883,0,SOUTH LEMHI DISTRICT,LEADORE SCHOOL,ID,1603030,ID,39,68,60,0,0,5,1,115,0,7,10.02,12.77,20.32,0,0,131000,1674000,322000,18991,8,710,115,33
37.553769,-88.978411,0,GOREVILLE CUD 1,Goreville High School,IL,1700014,IL,176,335,314,0,2,1,5,633,0,8,15.09,43,83.5,0,–,3502000,5469000,599000,15689,31,"3,777",555,57
40.203307,-89.707954,0,ILLINI CENTRAL CUSD 189,Illini Central High School,IL,1700113,IL,190,348,320,0,2,19,1,634,0,12,11.04,60.5,97.5,0,–,6290000,6374000,983000,20491,38,"4,146",658,110
41.454583,-89.681677,0,BUREAU VALLEY CUSD 340,Bureau Valley High School,IL,1700125,IL,303,464,461,1,0,58,2,834,0,30,10.32,89.75,271.36,0,–,12151000,9333000,1210000,22808,74,"6,084","1,009",113
41.0273,-89.2898,1,MIDLAND CUSD 7,Midland High School,IL,1700126,IL,195,351,324,0,1,30,13,615,3,13,15.34,44,52.75,0,–,6160000,4511000,676000,16256,32,"5,076",758,97
42.103782,-87.959381,1,TOWNSHIP HSD 214,John Hersey High School,IL,1704170,IL,12114,6250,5852,12,1067,4211,284,6113,12,403,15.62,775.7,1218.71,6,–,251752000,72046000,12969000,27922,2857,"248,994","12,495",847
42.078589,-87.94884,1,TOWNSHIP HSD 214,Prospect High School,IL,1704170,IL,12114,6250,5852,12,1067,4211,284,6113,12,403,15.62,775.7,1218.71,6,–,251752000,72046000,12969000,27922,2857,"248,994","12,495",847
40.229746,-90.3522,0,ASTORIA CUSD 1,Astoria High School,IL,1704440,IL,80,150,122,0,1,0,0,264,0,7,8.96,30.37,63.75,0.44,–,2332000,3785000,448000,22030,16,"1,746",274,60
41.783291,-88.324895,0,AURORA WEST USD 129,HOPE D WALL TMH CHILD DEV CTR,IL,1704710,IL,3653,5652,5383,14,352,6997,1110,2200,15,347,14.13,780.9,1543.25,10,–,114246000,82658000,20662000,19334,831,"73,830","12,229","1,705"
41.848218,-88.330565,1,BATAVIA USD 101,Batavia Sr High School,IL,1705220,IL,1771,2715,2525,4,126,730,220,3945,4,211,14.79,354.36,515.05,7,–,82897000,27156000,6468000,21715,469,"31,555","6,156",287
42.244041,-88.83069,1,BELVIDERE CUSD 100,Belvidere High School,IL,1705790,IL,2569,3888,3584,22,61,3443,241,3458,4,243,13.34,560.11,868.79,1,–,65505000,86063000,6310000,20942,604,"44,211","8,002","1,200"
37.996968,-88.912751,0,BENTON CONS HSD 103,Benton Cons High School,IL,1705970,IL,597,332,265,0,4,21,2,538,0,32,13.44,44.41,81.96,1,–,4825000,7119000,1029000,23544,98,"12,200",666,116
38.9094,-90.0629,1,BETHALTO CUSD 8,Civic Memorial High School,IL,1706120,IL,752,1152,1205,1,10,94,75,2060,1,116,14.84,158.87,379.54,0,–,12245000,23445000,2323000,16245,182,"14,929","2,565",269
39.040012,-89.960727,1,BUNKER HILL CUSD 8,Bunker Hill High School,IL,1707770,IL,177,303,256,1,1,13,7,516,0,21,12.64,44.3,76.9,0.8,–,2600000,6331000,875000,16791,43,"3,952",607,72
37.952857,-89.566095,0,TRICO CUSD 176,Trico Senior High School,IL,1708250,IL,227,432,444,0,0,138,8,717,0,13,14.13,62,146.42,0,–,6152000,7837000,1154000,18580,45,"6,058","1,095",158
37.75967,-89.10747,1,CARTERVILLE CUSD 5,Carterville High School,IL,1708640,IL,647,1134,1032,1,67,134,83,1755,0,126,15.35,141.13,283.05,0,–,11081000,11028000,2786000,11520,164,"12,344","2,263",334
40.570627,-87.892188,0,CISSNA PARK CUSD 6,Cissna Park Sr High School,IL,1710290,IL,91,145,138,0,2,16,10,255,0,0,10.65,26.58,53.88,0.5,–,2496000,2222000,325000,18609,22,"1,645",252,32
40.9596,-87.9177,0,CENTRAL CUSD 4,Central High School,IL,1710410,IL,305,484,494,0,0,77,8,860,0,33,12.65,77.3,187.1,2,–,7899000,8805000,1178000,19003,69,"5,734",928,59
38.186892,-89.606303,0,COULTERVILLE USD 1,Coulterville High School,IL,1710980,IL,67,86,115,0,0,7,5,180,1,8,10.38,19.36,32.74,0,–,1079000,2520000,326000,20337,14,"1,410",235,35
41.441844,-87.649801,1,CRETE MONEE CUSD 201U,Crete-Monee High School,IL,1711250,IL,1503,2305,2184,8,27,914,2652,638,0,250,13.07,343.53,753.7,0,–,58729000,37815000,8097000,23771,336,"33,181","5,120",947
42.2704,-88.3142,1,CHSD 155,Prairie Ridge High School,IL,1711370,IL,5340,2771,2569,17,150,1134,102,3861,6,70,16.48,324,683,2,–,82858000,60309000,3523000,25789,1285,"96,934","6,091",293
41.9544,-88.758523,1,DEKALB CUSD 428,DeKalb High School,IL,1712000,IL,2071,3500,3215,19,78,2095,1874,2171,4,474,14.37,467.6,1141.95,1,–,59877000,61909000,7700000,19566,470,"48,503","6,853","1,316"
40.885315,-87.612927,0,DONOVAN CUSD 3,Donovan Sr High School,IL,1712510,IL,78,152,138,0,0,22,3,246,0,19,10.68,27.15,51.15,0,–,2823000,2637000,397000,23906,13,"1,877",310,60
38.376245,-88.067618,0,EDWARDS COUNTY CUSD 1,Edwards County High School,IL,1713500,IL,236,382,438,0,2,13,2,779,0,24,12.69,64.64,155.78,0.33,–,3820000,8786000,841000,16240,53,"5,357",914,108
42.000907,-88.283647,1,SD U-46,South Elgin High School,IL,1713710,IL,11808,17646,16902,342,2834,20046,2214,7980,43,1089,15.33,2253.53,4355.76,11.6,–,330015000,342593000,54195000,19926,2636,"228,803","37,202","4,367"
41.9223,-87.8296,1,ELMWOOD PARK CUSD 401,Elmwood Park High School,IL,1714100,IL,1022,1473,1404,7,58,1724,78,961,5,44,13.89,207.15,345.65,0,–,29353000,23926000,2687000,20031,203,"23,685","3,493",451
41.1855,-88.3025,0,GARDNER S WILMINGTON TWP HSD 73,Gardner-South Wilmington Twp H S,IL,1716260,IL,142,73,68,0,0,10,1,129,0,1,7.31,19.43,36.7,0,–,2261000,1300000,113000,20298,38,"3,869",180,15
42.0971,-88.7185,0,GENOA KINGSTON CUSD 424,Genoa-Kingston High School,IL,1716410,IL,468,803,691,3,18,331,17,1096,0,29,12.29,121.56,293.76,0.9,–,12824000,12587000,1331000,17948,139,"9,013","1,672",137
41.8796,-88.0603,1,GLENBARD TWP HSD 87,Glenbard West High School,IL,1716830,IL,7747,3989,3758,61,1177,2361,530,3366,9,243,16.3,475.15,948.6,10.73,–,142409000,52081000,5922000,24884,1883,"163,414","8,691",575
38.2584,-88.0058,0,GRAYVILLE CUSD 1,Grayville Jr Sr High School,IL,1717580,IL,82,133,145,1,1,0,0,272,0,4,12.21,22.76,49.91,0,–,1661000,3016000,395000,18996,22,"1,825",266,72
38.901345,-89.399263,1,BOND COUNTY CUSD 2,Bond Cty Comm Unit 2 High School,IL,1717730,IL,486,824,716,5,7,48,39,1335,0,106,12.41,124.05,356.65,5,–,10493000,19045000,2554000,19356,110,"12,861","1,674",246
40.396035,-91.343859,1,HAMILTON CCSD 328,Hamilton High School,IL,1718060,IL,177,298,284,1,0,8,7,525,0,41,12.38,47,100.88,1,–,3849000,4088000,794000,16536,26,"3,649",581,111
39.1519,-89.4875,1,HILLSBORO CUSD 3,Hillsboro High School,IL,1719200,IL,436,785,754,3,1,49,15,1433,0,38,13.87,110.97,296.48,1,–,14440000,13914000,2240000,18920,85,"12,262","1,611",233
34.943828,-119.674697,0,CUYAMA JOINT UNIFIED,SIERRA MADRE HIGH (CONTINUATION),CA,0600009,CA,63,93,78,0,0,129,0,38,0,4,16.96,10.08,21.14,0,0,2192000,1707000,402000,23503,15,"1,053",206,24
34.607493,-120.100475,0,SANTA YNEZ VALLEY UNION HIGH,REFUGIO HIGH,CA,0635850,CA,862,441,416,5,4,415,4,392,0,37,19.26,44.75,95.8,0,0,14324000,1497000,630000,19041,180,"22,333","1,330",95
36.428904,-121.326796,0,SOLEDAD UNIFIED,SOLEDAD TRANSITION CENTER,CA,0637050,CA,1602,2357,2341,2,64,4506,19,87,3,17,22.18,211.87,501.41,0,0,16047000,56271000,12781000,17328,394,"25,183","4,780",756
39.74571,-122.016725,0,HAMILTON UNIFIED,ELLA BARKLEY HIGH,CA,0601339,CA,310,353,362,4,11,600,0,49,0,51,17.46,40.95,75.85,0,0,2626000,7373000,1668000,16456,77,"3,114",542,114
36.434718,-121.323281,0,SOLEDAD UNIFIED,PINNACLES HIGH,CA,0637050,CA,1602,2357,2341,2,64,4506,19,87,3,17,22.18,211.87,501.41,0,0,16047000,56271000,12781000,17328,394,"25,183","4,780",756
39.153357,-122.157448,0,WILLIAMS UNIFIED,MID VALLEY HIGH (CONTINUATION),CA,0642540,CA,441,703,667,1,14,1306,3,36,2,8,22.09,62.03,135.57,0,0,4948000,13452000,3245000,16177,107,"6,294","1,372",169
36.008816,-120.125446,0,REEF-SUNSET UNIFIED,SUNRISE HIGH (CONTINUATION),CA,0632270,CA,780,1400,1287,2,25,2617,2,38,2,1,22.04,121.94,308.13,1,0,3897000,35048000,7208000,16918,176,"15,151","2,651",746
32.985311,-115.539693,0,BRAWLEY UNION HIGH,RENAISSANCE,CA,0605820,CA,2022,1027,994,1,16,1911,11,74,1,7,23.38,86.48,180.24,0,0,5927000,24539000,3951000,17047,496,"29,457","2,156",462
32.816294,-115.38612,0,HOLTVILLE UNIFIED,SAM WEBB CONTINUATION,CA,0617430,CA,555,780,798,3,0,1381,5,181,0,8,16.96,93.29,260.23,0,0,5048000,19829000,5183000,18648,130,"7,966","1,708",332
36.5279,-119.384,0,DINUBA UNIFIED,SIERRA VISTA HIGH (CONTINUATION),CA,0600065,CA,2264,3262,3051,44,98,5841,22,290,8,10,22.89,275.75,682.56,1,0,12308000,103283000,18909000,20256,526,"31,619","6,947","1,668"
38.183942,-120.005374,0,SUMMERVILLE UNION HIGH,MOUNTAIN HIGH,CA,0638280,CA,610,332,307,7,4,142,1,418,0,67,18.63,34.35,66.21,0,0,6623000,6870000,812000,22670,136,"9,717",494,53
39.401343,-122.011276,0,PRINCETON JOINT UNIFIED,PRINCETON LANDING HIGH (CONT),CA,0631620,CA,46,66,51,2,0,63,0,45,0,7,10.88,10.75,26.46,0,0,1690000,2539000,261000,31844,10,"1,041",198,38
35.979067,-116.272658,0,DEATH VALLEY UNIFIED,SHOSHONE HIGH (CONTINUATION),CA,0610680,CA,2,8,9,0,0,8,0,6,0,3,5.3,3.21,10.71,0,0,1114000,409000,183000,85300,0,831,44,10
38.330262,-121.568913,0,RIVER DELTA JOINT UNIFIED,MOKELUMNE HIGH (CONTINUATION),CA,0633110,CA,635,886,867,11,30,1040,44,503,12,113,18.62,94.15,219.91,0,0,15014000,12050000,2906000,15993,175,"17,623","2,055",175
38.679349,-121.971448,0,ESPARTO UNIFIED,MADISON COMMUNITY HIGH,CA,0612930,CA,301,492,505,14,13,758,18,169,0,25,21.9,45.53,115.29,0,0,5826000,8913000,2402000,18352,84,"6,702","1,280",93
36.2094,-120.0987,0,COALINGA-HURON UNIFIED,CHESNUT HIGH (CONTINUATION),CA,0609120,CA,1315,2234,2147,7,77,3805,49,364,4,75,20.17,217.25,639.34,1,0,12951000,51674000,12545000,17519,282,"25,421","4,829",861
35.275495,-116.072947,0,BAKER VALLEY UNIFIED,BAKER HIGH,CA,0603610,CA,35,61,68,0,0,111,0,18,0,0,9.96,12.95,16.45,0,0,2345000,631000,444000,26929,10,550,121,5
40.456011,-123.528719,0,SOUTHERN TRINITY JOINT UNIFIED,MT. LASSIC HIGH (CONTINUATION),CA,0637630,CA,13,41,36,4,3,5,0,54,0,11,9.19,8.38,22.9,0,0,1206000,1554000,330000,35930,10,925,101,28
38.088119,-120.19667,0,SUMMERVILLE UNION HIGH,SOUTH FORK HIGH,CA,0638280,CA,610,332,307,7,4,142,1,418,0,67,18.63,34.35,66.21,0,0,6623000,6870000,812000,22670,136,"9,717",494,53
37.672743,-119.80842,0,MARIPOSA COUNTY UNIFIED,YOSEMITE PARK HIGH,CA,0623940,CA,529,875,787,56,17,416,17,1007,2,147,18.71,89.19,225.64,0,0,17621000,8977000,2989000,18446,149,"16,734","2,225",484
36.853337,-120.446173,0,FIREBAUGH-LAS DELTAS UNIFIED,EL PUENTE HIGH,CA,0613840,CA,654,1165,1028,0,5,2122,4,59,2,1,18.72,117.17,264.49,0,0,10810000,28783000,7348000,21552,132,"9,259","2,196",460
39.01,-122.0555,0,PIERCE JOINT UNIFIED,ARBUCKLE ALTERNATIVE HIGH (CONTINUATION),CA,0630360,CA,511,759,735,1,15,1196,14,251,1,16,20.42,73.17,131.47,0,0,8207000,14241000,3174000,17756,115,"7,037","1,416",117
32.985311,-115.539693,0,BRAWLEY UNION HIGH,DESERT VALLEY HIGH (CONTINUATION),CA,0605820,CA,2022,1027,994,1,16,1911,11,74,1,7,23.38,86.48,180.24,0,0,5927000,24539000,3951000,17047,496,"29,457","2,156",462
37.638527,-118.962754,0,MAMMOTH UNIFIED,SIERRA HIGH (CONTINUATION),CA,0623530,CA,353,559,553,1,14,671,0,395,0,31,17.99,61.8,114,0,0,17735000,3404000,1678000,20391,77,"8,473","1,151",102
32.733847,-116.492803,0,MOUNTAIN EMPIRE UNIFIED,CAMPO HIGH (CONTINUATION),CA,0626100,CA,478,1018,852,69,11,1179,19,500,0,92,21.81,85.79,234.77,0,0,10693000,17405000,6132000,20448,117,"11,832","2,012",279
39.200208,-122.019514,0,COLUSA UNIFIED,COLUSA ALTERNATIVE HIGH (CONTINUATION),CA,0609570,CA,502,775,688,47,12,1072,12,277,3,40,20.28,72.19,150.97,0,0,4924000,14373000,2455000,14226,104,"7,912","1,533",227
40.11922,-123.824835,0,SOUTHERN HUMBOLDT JOINT UNIFIED,OSPREY LEARNING CENTER,CA,0637590,CA,220,335,308,28,4,141,3,424,2,41,16.96,38.04,99.96,0,0,6610000,10704000,1552000,28327,52,"7,836",935,295
35.568918,-121.072715,0,COAST UNIFIED,LEFFINGWELL HIGH (CONTINUATION),CA,0600049,CA,165,258,231,1,3,363,0,107,0,15,12.68,38.56,106.76,0,0,13423000,1920000,1255000,30966,39,"9,324",679,85
36.206552,-119.082065,0,LINDSAY UNIFIED,JOHN J. CAIRNS CONTINUATION,CA,0621870,CA,1243,2026,1960,8,25,3782,9,129,3,30,21.08,189.17,543.7,0,0,9316000,63607000,36449000,26893,275,"17,360","4,279",980
36.926404,-121.846632,0,PAJARO VALLEY UNIFIED,RENAISSANCE HIGH CONTINUATION,CA,0629490,CA,5529,8675,8325,21,184,14244,36,2255,21,239,21.14,804.75,1927.78,0,0,97887000,187208000,56120000,18205,1190,"107,503","19,006","3,892"
39.67952,-120.245321,0,SIERRA-PLUMAS JOINT UNIFIED,SIERRA PASS (CONTINUATION),CA,0636780,CA,130,210,193,5,0,65,2,294,3,34,14.27,28.24,63.51,0,0,3293000,2594000,936000,17273,29,"3,872",527,71
36.423165,-119.103001,0,WOODLAKE UNIFIED,BRAVO LAKE HIGH,CA,0601418,CA,711,1033,1051,12,14,1891,1,164,0,2,20.28,102.79,242.67,0,0,6174000,25288000,9265000,19684,173,"12,608","2,312",567
34.943828,-119.674697,0,CUYAMA JOINT UNIFIED,CUYAMA VALLEY HIGH,CA,0600009,CA,63,93,78,0,0,129,0,38,0,4,16.96,10.08,21.14,0,0,2192000,1707000,402000,23503,15,"1,053",206,24
39.920951,-122.165676,0,CORNING UNION HIGH,CORNING INDEPENDENT STUDY,CA,0609810,CA,1057,560,495,17,18,712,7,266,3,32,18.04,58.58,125.58,0,0,4932000,12186000,4157000,19465,295,"17,837","1,170",208
35.586538,-119.342548,0,WASCO UNION HIGH,WASCO INDEPENDENCE HIGH,CA,0641430,CA,1807,920,887,1,12,1704,32,56,0,2,20.59,87.78,188.47,0.24,0,13852000,15800000,4646000,17854,460,"31,108","2,080",452
36.0965,-119.5725,0,CORCORAN JOINT UNIFIED,KINGS LAKE EDUCATION CENTER,CA,0609690,CA,953,1614,1586,9,17,2950,74,135,1,14,20.63,155.16,326.79,0,0,5048000,47615000,8609000,18812,186,"23,243","3,486",959
36.5887,-119.3766,0,KINGS CANYON JOINT UNIFIED,KINGS CANYON CONTINUATION,CA,0619700,CA,3193,4992,4665,27,83,8506,26,783,4,228,21.83,442.47,1116.99,1.27,0,27112000,121801000,29584000,18528,724,"47,302","10,106","2,376"
36.518583,-119.541496,0,KINGSBURG JOINT UNION HIGH,OASIS CONTINUATION HIGH,CA,0619830,CA,1227,616,609,2,27,794,7,355,0,40,20.12,60.97,105.39,0,0,7806000,11080000,2590000,18032,324,"18,323","1,193",140
36.533135,-120.099454,0,GOLDEN PLAINS UNIFIED,RIO DEL REY HIGH (CONTINUATION),CA,0691134,CA,407,714,674,0,7,1347,19,14,0,1,16.78,82.7,199.69,0,0,8048000,17664000,5527000,20552,92,"6,762","1,723",256
36.5016,-119.2886,0,CUTLER-OROSI JOINT UNIFIED,LOVELL HIGH,CA,0610350,CA,1155,1955,1870,3,114,3670,5,24,5,4,19.95,191.73,536.38,0,0,8538000,65266000,18244000,22972,276,"17,743","4,018","1,132"
36.754982,-120.390303,0,MENDOTA UNIFIED,MENDOTA CONTINUATION HIGH,CA,0600022,CA,1126,1978,1971,0,12,3892,2,39,0,4,22.57,174.98,369.76,0,0,6826000,46449000,11918000,17773,214,"14,162","3,310",889
39.365161,-121.693579,0,GRIDLEY UNIFIED,ESPERANZA HIGH (CONTINUATION),CA,0600051,CA,672,1020,973,9,68,1171,15,679,3,48,19.92,100.15,202.47,0,0,6446000,26496000,4881000,18184,171,"11,844","2,173",429
36.435063,-119.682529,0,LATON JOINT UNIFIED,LATON HIGH,CA,0621150,CA,158,308,289,0,0,520,5,66,0,6,15.47,38.59,84.25,0,0,2658000,7663000,1829000,19194,43,"3,341",686,95
34.8608,-116.8903,0,SILVER VALLEY UNIFIED,CALICO CONTINUATION HIGH,CA,0636820,CA,440,1056,974,10,54,850,185,690,62,179,17.77,114.26,256.42,0,0,3984000,21120000,16273000,20545,74,"12,141","2,118",191
38.913457,-123.697203,0,POINT ARENA JOINT UNION HIGH,SOUTH COAST CONTINUATION,CA,0631230,CA,143,77,66,11,0,88,0,40,1,3,9.09,15.73,45.1,0,0,†,†,†,†,33,"5,833",202,52
38.091524,-120.137984,0,SUMMERVILLE UNION HIGH,COLD SPRINGS HIGH,CA,0638280,CA,610,332,307,7,4,142,1,418,0,67,18.63,34.35,66.21,0,0,6623000,6870000,812000,22670,136,"9,717",494,53
36.209152,-121.133942,0,SOUTH MONTEREY COUNTY JOINT UNION HIGH,PINNACLE COASTAL VALLEY HIGH,CA,0619650,CA,2731,1409,1322,8,16,2597,2,99,2,7,23.25,117.47,243.75,0,0,12701000,30267000,8502000,19357,579,"38,318","2,806",469
40.321704,-124.285548,0,MATTOLE UNIFIED,MATTOLE TRIPLE JUNCTION HIGH,CA,0600038,CA,3,22,14,1,0,4,0,21,0,10,6.47,5.56,12.41,0,0,845000,483000,69000,31044,4,741,65,18
38.755142,-122.614103,0,MIDDLETOWN UNIFIED,LOCONOMA VALLEY HIGH,CA,0624750,CA,429,723,752,21,16,459,8,873,2,96,19.9,74.18,171.22,0,0,8587000,10804000,2126000,15469,123,"9,578","1,797",236
38.911996,-120.829316,0,BLACK OAK MINE UNIFIED,DIVIDE HIGH,CA,0605240,CA,402,658,611,22,15,161,5,951,6,109,21.53,58.98,145.74,0,0,8711000,6798000,2159000,13760,98,"13,323","1,691",156
39.276287,-121.655153,0,LIVE OAK UNIFIED,VALLEY OAK CONTINUATION HIGH,CA,0622050,CA,663,1017,1009,14,218,1221,31,516,3,23,19.6,103.36,256.22,0,0,6793000,20232000,5030000,16853,162,"10,841","2,186",380
39.518259,-122.203878,0,WILLOWS UNIFIED,WILLOWS COMMUNITY HIGH,CA,0642710,CA,449,715,642,38,54,715,15,504,1,30,20.89,64.97,165.88,0,0,6643000,12200000,2559000,15702,129,"9,261","1,852",280
38.7318,-121.8083,0,WOODLAND JOINT UNIFIED,CACHE CREEK HIGH (CONTINUATION),CA,0643080,CA,2983,4896,4573,35,649,6534,146,1582,54,469,21.78,435.4,867.1,0,0,46182000,84506000,18582000,15456,696,"67,804","11,591","1,183"
37.610349,-121.28793,0,PATTERSON JOINT UNIFIED,RISING SUN,CA,0630030,CA,2078,3146,2989,23,261,4742,269,522,84,234,21.64,283.68,664.62,0,0,25539000,62380000,18155000,17644,469,"28,789","6,427",768
35.05416,-119.403814,0,MARICOPA UNIFIED,MARICOPA HIGH,CA,0623820,CA,83,165,141,7,0,170,2,125,2,0,14.87,20.58,46.48,0,0,5857000,4731000,1388000,37660,22,"1,691",301,67
36.0095,-120.1297,0,REEF-SUNSET UNIFIED,AVENAL HIGH,CA,0632270,CA,780,1400,1287,2,25,2617,2,38,2,1,22.04,121.94,308.13,1,0,3897000,35048000,7208000,16918,176,"15,151","2,651",746
39.606861,-122.538381,0,STONY CREEK JOINT UNIFIED,BIDWELL POINT HIGH (CONTINUATION),CA,0638070,CA,22,33,38,36,0,10,0,23,0,2,7.07,10.04,22.59,0,0,527000,1267000,1085000,35543,7,838,160,75
36.962103,-120.653852,0,DOS PALOS ORO LOMA JOINT UNIFIED,WESTSIDE HIGH,CA,0600033,CA,706,1173,1094,29,6,1914,43,249,1,25,21.81,104.08,272.18,0,0,6665000,26669000,8529000,18265,177,"11,631","2,653",636
41.491258,-120.539751,0,MODOC JOINT UNIFIED,WARNER HIGH,CA,0625190,CA,247,400,406,52,6,159,13,521,5,50,17.47,46.36,105.91,0,0,3460000,7339000,2008000,15733,50,"5,953",914,242
37.03661,-119.453571,0,SIERRA UNIFIED,SIERRA ALTERNATIVE HIGH,CA,0636805,CA,446,679,613,175,19,280,6,723,0,89,18.54,69.7,174.22,0,0,10162000,8988000,2174000,17711,101,"10,539","1,632",158
37.15245,-118.32809,0,BISHOP UNIFIED,PALISADE GLACIER HIGH (CONTINUATION),CA,0601409,CA,663,1001,932,280,14,796,4,658,2,179,18.06,107.02,243.41,0,0,15199000,9844000,4559000,15034,153,"13,122","1,951",205
39.792197,-123.256202,0,ROUND VALLEY UNIFIED,ROUND VALLEY CONTINUATION,CA,0633720,CA,122,267,183,257,0,136,1,43,0,13,17.08,26.34,62.04,0,0,1935000,7201000,2795000,27554,24,"3,067",554,216
35.68,-119.2346,0,MCFARLAND UNIFIED,SAN JOAQUIN HIGH (CONTINUATION),CA,0624230,CA,1022,1723,1551,0,25,3203,8,11,1,26,22.02,148.66,350.06,0,0,12370000,42212000,9971000,18738,289,"15,010","3,786","1,110"
40.302334,-121.230168,0,PLUMAS UNIFIED,ALMANOR HIGH (CONTINUATION),CA,0631170,CA,540,867,815,50,15,323,9,1049,1,235,17.03,99.07,200.65,0,0,26558000,6545000,4234000,22479,87,"18,459","2,350",391
38.807674,-123.020896,0,CLOVERDALE UNIFIED,JOHANNA ECHOLS-HANSEN HIGH (CONTINUATION),CA,0608970,CA,411,689,614,32,10,793,7,400,0,61,18.73,69.58,146.48,0,0,14520000,5695000,2209000,16610,98,"10,996","1,568",120
34.3545,-119.0735,0,SANTA PAULA UNIFIED,RENAISSANCE HIGH,CA,0601421,CA,1784,2455,2353,6,23,4563,13,178,4,21,21.25,226.29,594.64,1,0,19666000,60412000,13311000,18380,392,"32,470","5,513",865
41.051421,-121.402229,0,FALL RIVER JOINT UNIFIED,SOLDIER MOUNTAIN HIGH (CONTINUATION),CA,0613470,CA,355,624,536,112,1,322,2,619,4,100,17.1,67.85,154.74,0,0,6053000,11074000,2461000,16433,84,"7,735","1,140",124
36.1458,-120.3604,0,COALINGA-HURON UNIFIED,CAMBRIDGE HIGH,CA,0609120,CA,1315,2234,2147,7,77,3805,49,364,4,75,20.17,217.25,639.34,1,0,12951000,51674000,12545000,17519,282,"25,421","4,829",861
41.254157,-122.134716,0,SISKIYOU UNION HIGH,MCCLOUD HIGH,CA,0636940,CA,515,273,238,27,10,77,14,287,0,96,14.35,35.9,61.62,0,0,5750000,4563000,1940000,22818,114,"15,443",760,123
39.801225,-120.466612,0,PLUMAS UNIFIED,BECKWOURTH (JIM) HIGH (CONTINUATION),CA,0631170,CA,540,867,815,50,15,323,9,1049,1,235,17.03,99.07,200.65,0,0,26558000,6545000,4234000,22479,87,"18,459","2,350",391
39.165715,-121.755023,0,SUTTER UNION HIGH,BUTTE VIEW HIGH,CA,0638610,CA,795,428,367,6,24,237,2,467,0,59,20.79,38.24,73.54,0,0,3277000,6913000,767000,13561,222,"7,497",508,60
37.745985,-120.130576,0,MARIPOSA COUNTY UNIFIED,COULTERVILLE HIGH,CA,0623940,CA,529,875,787,56,17,416,17,1007,2,147,18.71,89.19,225.64,0,0,17621000,8977000,2989000,18446,149,"16,734","2,225",484
37.247609,-122.364582,0,LA HONDA-PESCADERO UNIFIED,PESCADERO HIGH,CA,0620220,CA,83,143,116,0,2,170,0,87,0,0,14.94,17.34,43.93,0,0,5928000,1184000,604000,28058,17,"3,445",397,11
35.121683,-118.434471,0,TEHACHAPI UNIFIED,MONROE HIGH (CONTINUATION),CA,0638880,CA,1301,2182,2035,21,50,1653,52,2243,9,189,23.67,178.27,490.85,0.5,0,17296000,34245000,7080000,14762,293,"35,530","5,923",688
34.232983,-117.208673,0,RIM OF THE WORLD UNIFIED,MOUNTAIN HIGH,CA,0632610,CA,983,1446,1400,11,27,1259,9,1443,1,96,22.34,127.7,299.54,1,0,17728000,22141000,5854000,15626,236,"30,433","4,500",276
37.320651,-121.024112,0,NEWMAN-CROWS LANDING UNIFIED,WEST SIDE VALLEY HIGH (CONTINUATION),CA,0627200,CA,1043,1606,1555,4,49,2567,63,380,4,94,19.46,162.42,407.46,0,0,11536000,33300000,6752000,16056,254,"16,065","3,603",439
36.527758,-121.828809,0,CARMEL UNIFIED,CARMEL VALLEY HIGH,CA,0607530,CA,822,1116,1042,2,85,464,10,1327,2,268,15.74,137.2,359.21,2.13,0,63053000,7840000,3721000,31955,235,"22,498","2,939",248
40.24148,-123.623151,0,SOUTHERN HUMBOLDT JOINT UNIFIED,CASTERLIN HIGH,CA,0637590,CA,220,335,308,28,4,141,3,424,2,41,16.96,38.04,99.96,0,0,6610000,10704000,1552000,28327,52,"7,836",935,295
37.208258,-119.906144,0,YOSEMITE UNIFIED,RAYMOND GRANITE HIGH,CA,0600160,CA,645,725,683,55,23,385,10,837,0,98,19.93,70.94,164.43,0,0,10372000,10903000,3023000,17814,144,"23,702","2,338",288
38.914628,-122.604655,0,KONOCTI UNIFIED,BLUE HERON,CA,0620070,CA,1088,1988,1875,91,17,2107,72,1238,5,333,25.02,154.83,457.6,0,0,12771000,40161000,9711000,17386,214,"24,624","4,266","1,163"
39.439564,-123.790385,0,FORT BRAGG UNIFIED,LIGHTHOUSE COMMUNITY DAY,CA,0614070,CA,563,872,798,12,16,797,5,662,3,175,16.44,102.06,245.54,0,0,11647000,15914000,5240000,19352,141,"14,207","1,872",279
37.863327,-120.227139,0,BIG OAK FLAT-GROVELAND UNIFIED,TIOGA HIGH,CA,0691137,CA,87,116,132,11,4,57,4,170,0,2,9.67,25.64,96.09,0,0,6083000,1437000,1076000,30921,26,"5,337",529,90
39.9834,-123.975467,0,LEGGETT VALLEY UNIFIED,WHALE GULCH HIGH,CA,0609665,CA,26,63,56,2,1,32,2,71,1,10,10.31,11.74,58.24,0,0,496000,2223000,256000,22201,13,611,76,37
37.397315,-120.857171,0,HILMAR UNIFIED,IRWIN HIGH (CONTINUATION),CA,0617220,CA,722,1171,1125,15,20,1067,8,1158,3,25,20.45,112.3,225.01,0,0,9800000,21266000,4050000,14943,186,"9,930","1,966",261
38.977916,-122.831216,0,KELSEYVILLE UNIFIED,ED DONALDSON EDUCATION CENTER,CA,0619320,CA,592,950,923,50,11,859,12,793,1,147,20.91,89.77,210.47,0,0,9069000,18194000,3659000,17720,139,"12,958","2,048",327
41.460446,-122.900752,0,SCOTT VALLEY UNIFIED,SCOTT RIVER HIGH,CA,0600159,CA,207,328,296,58,6,77,6,362,2,113,16.72,37.32,101.64,0,0,3404000,9488000,1815000,24031,52,"5,117",825,160
36.6122,-119.3211,0,KINGS CANYON JOINT UNIFIED,ORANGE COVE HIGH,CA,0619700,CA,3193,4992,4665,27,83,8506,26,783,4,228,21.83,442.47,1116.99,1.27,0,27112000,121801000,29584000,18528,724,"47,302","10,106","2,376"
36.0973,-119.568,0,CORCORAN JOINT UNIFIED,CORCORAN HIGH,CA,0609690,CA,953,1614,1586,9,17,2950,74,135,1,14,20.63,155.16,326.79,0,0,5048000,47615000,8609000,18812,186,"23,243","3,486",959
37.680815,-120.324413,0,BIG OAK FLAT-GROVELAND UNIFIED,DON PEDRO HIGH,CA,0691137,CA,87,116,132,11,4,57,4,170,0,2,9.67,25.64,96.09,0,0,6083000,1437000,1076000,30921,26,"5,337",529,90
40.691656,-122.401977,0,GATEWAY UNIFIED,MOUNTAIN LAKES HIGH,CA,0614950,CA,702,1178,941,110,79,360,34,1364,3,169,18.02,117.57,319.38,0,0,20047000,15582000,7711000,19844,161,"29,688","4,695",731
32.74958,-114.598281,0,SAN PASQUAL VALLEY UNIFIED,BILL M. MANES HIGH,CA,0635070,CA,204,290,298,266,0,285,2,15,0,20,13.85,42.52,109.97,0,0,2386000,8020000,6610000,27941,38,"2,959",635,171
39.7935,-123.2562,0,ROUND VALLEY UNIFIED,ROUND VALLEY HIGH,CA,0633720,CA,122,267,183,257,0,136,1,43,0,13,17.08,26.34,62.04,0,0,1935000,7201000,2795000,27554,24,"3,067",554,216
39.323755,-120.212676,0,TAHOE-TRUCKEE UNIFIED,SIERRA HIGH (CONTINUATION),CA,0638770,CA,1427,1986,1930,10,22,1387,8,2270,2,217,18.51,211.82,477.35,0,0,78652000,18376000,6171000,26159,334,"32,898","4,769",263
37.6368,-120.7749,0,WATERFORD UNIFIED,SENTINEL HIGH,CA,0600063,CA,617,857,876,3,34,1181,24,442,8,41,21,82.71,232.31,0,0,8493000,21246000,10403000,22178,163,"10,292","2,300",247
37.463573,-122.435845,0,CABRILLO UNIFIED,PILARCITOS ALTERNATIVE HIGH (CONTINUATION),CA,0606780,CA,1043,1333,1329,0,60,1391,9,1065,1,136,21.23,125.43,290.29,0,0,43409000,7868000,3312000,18606,246,"24,820","3,348",147
39.522261,-121.568986,0,OROVILLE UNION HIGH,OROVILLE HIGH COMMUNITY DAY,CA,0629130,CA,2264,1138,1120,130,305,501,64,1067,21,170,20.48,110.57,269.9,0,0,14779000,24582000,5798000,19348,507,"54,458","3,117",694
36.518583,-119.541496,0,KINGSBURG JOINT UNION HIGH,KINGSBURG INDEPENDENT STUDY HIGH,CA,0619830,CA,1227,616,609,2,27,794,7,355,0,40,20.12,60.97,105.39,0,0,7806000,11080000,2590000,18032,324,"18,323","1,193",140
35.568456,-121.067297,0,COAST UNIFIED,COAST UNION HIGH,CA,0600049,CA,165,258,231,1,3,363,0,107,0,15,12.68,38.56,106.76,0,0,13423000,1920000,1255000,30966,39,"9,324",679,85
35.508823,-119.267601,0,KERN HIGH,CENTRAL VALLEY HIGH (CONTINUATION),CA,0619540,CA,43116,21941,21152,227,1587,30941,2318,7083,124,813,23.57,1828.94,3770.04,1.65,0,187409000,459406000,93759000,17479,9297,"666,555","46,951","10,177"
35.0661,-120.5945,0,LUCIA MAR UNIFIED,LOPEZ CONTINUATION HIGH,CA,0623080,CA,3347,5034,4561,22,200,4802,40,3928,11,592,19.51,493.21,1076.37,0,0,90670000,39829000,15084000,14674,791,"79,641","10,959","1,297"
32.81525,-115.385675,0,HOLTVILLE UNIFIED,HOLTVILLE HIGH,CA,0617430,CA,555,780,798,3,0,1381,5,181,0,8,16.96,93.29,260.23,0,0,5048000,19829000,5183000,18648,130,"7,966","1,708",332
38.909721,-120.01469,0,LAKE TAHOE UNIFIED,MT. TALLAC HIGH,CA,0620640,CA,1218,1878,1713,16,125,1645,11,1632,6,156,20.14,178.93,360.09,0,0,28190000,24349000,5236000,15510,274,"29,709","3,727",311
36.6329,-119.6716,0,FOWLER UNIFIED,FOWLER HIGH,CA,0614250,CA,820,1325,1198,7,220,2070,21,183,1,21,21.58,116.93,252.21,0,0,13913000,25402000,5769000,17461,215,"10,835","2,264",431
38.091524,-120.137984,0,SUMMERVILLE UNION HIGH,LONG BARN HIGH,CA,0638280,CA,610,332,307,7,4,142,1,418,0,67,18.63,34.35,66.21,0,0,6623000,6870000,812000,22670,136,"9,717",494,53
37.11474,-120.262262,0,CHOWCHILLA UNION HIGH,GATEWAY HIGH (CONTINUATION),CA,0608550,CA,1135,579,556,8,29,797,18,265,0,18,23.33,48.65,119.57,0,0,6469000,9011000,2136000,16044,242,"24,696","1,241",247
39.006668,-121.430745,0,WHEATLAND UNION HIGH,EDWARD P. DUPLEX,CA,0642350,CA,1091,579,510,10,73,368,39,449,9,141,20.6,52.95,136.85,0,0,5331000,8498000,1222000,16149,252,"17,356",946,88
37.981807,-120.379607,0,SONORA UNION HIGH,DARIO CASSINA HIGH,CA,0637260,CA,1092,565,519,18,22,236,8,709,3,88,24.22,45.09,113.51,0,0,11994000,3699000,1813000,17129,242,"39,150","1,791",212
41.963739,-121.924133,0,BUTTE VALLEY UNIFIED,BUTTE VALLEY HIGH,CA,0606580,CA,88,151,151,5,13,164,1,77,0,42,16.93,17.84,40.98,0,0,1354000,3139000,643000,18609,10,"1,714",316,67
39.920951,-122.165676,0,CORNING UNION HIGH,CENTENNIAL CONTINUATION HIGH,CA,0609810,CA,1057,560,495,17,18,712,7,266,3,32,18.04,58.58,125.58,0,0,4932000,12186000,4157000,19465,295,"17,837","1,170",208
40.456011,-123.528719,0,SOUTHERN TRINITY JOINT UNIFIED,SOUTHERN TRINITY HIGH,CA,0637630,CA,13,41,36,4,3,5,0,54,0,11,9.19,8.38,22.9,0,0,1206000,1554000,330000,35930,10,925,101,28
37.15245,-118.32809,0,BISHOP UNIFIED,BISHOP INDEPENDENT STUDY,CA,0601409,CA,663,1001,932,280,14,796,4,658,2,179,18.06,107.02,243.41,0,0,15199000,9844000,4559000,15034,153,"13,122","1,951",205
37.227236,-119.505627,0,CHAWANAKEE UNIFIED,MOUNTAIN OAKS HIGH,CA,0600116,CA,529,672,687,80,27,368,8,761,1,114,18.55,73.35,173.26,0,0,6831000,25183000,1491000,21884,128,"4,795",728,81
39.606861,-122.538381,0,STONY CREEK JOINT UNIFIED,ELK CREEK HIGH,CA,0638070,CA,22,33,38,36,0,10,0,23,0,2,7.07,10.04,22.59,0,0,527000,1267000,1085000,35543,7,838,160,75
39.062389,-122.918166,0,LAKEPORT UNIFIED,NATURAL HIGH (CONTINUATION),CA,0620670,CA,422,694,661,129,32,529,16,547,2,100,17.82,76.28,167.32,0,0,7364000,11774000,3202000,16095,135,"11,323","1,703",260
36.854602,-121.3969,0,SAN BENITO HIGH,SAN ANDREAS CONTINUATION HIGH,CA,0634140,CA,3539,1779,1757,11,93,2744,15,493,8,172,24.03,147.27,329.05,0,0,45115000,40642000,5882000,27355,804,"61,096","3,854",379
33.264564,-116.382734,0,BORREGO SPRINGS UNIFIED,BORREGO SPRINGS HIGH,CA,0605700,CA,117,183,162,0,3,300,1,32,0,9,17.09,20.19,60.99,0,0,4002000,5091000,1579000,28611,31,"3,359",361,25
39.165055,-122.90228,0,UPPER LAKE UNIFIED,CLOVER VALLEY HIGH (CONTINUATION),CA,0601442,CA,345,501,453,85,5,310,9,465,3,77,19.07,50.03,122.81,0,0,4439000,8082000,2509000,17641,82,"9,395","1,055",261
38.080026,-120.552288,0,BRET HARTE UNION HIGH,VALLECITO CONTINUATION HIGH,CA,0605940,CA,627,302,324,8,5,151,3,422,0,37,17.66,35.5,91.57,0,0,13378000,1269000,729000,24641,163,"19,970",814,111
35.6384,-117.6719,0,SIERRA SANDS UNIFIED,MESQUITE CONTINUATION HIGH,CA,0636800,CA,1621,2636,2475,55,177,1673,375,2488,32,311,21.24,241.19,561.58,0,0,11489000,71598000,19065000,20637,336,"35,405","6,524","1,070"
33.617904,-114.606374,0,PALO VERDE UNIFIED,TWIN PALMS CONTINUATION,CA,0629640,CA,850,1416,1289,16,13,1969,239,386,4,78,22.06,122.66,317.6,0,0,10996000,29901000,10579000,18247,238,"21,744","2,996",550
35.767925,-119.22116,0,DELANO JOINT UNION HIGH,CESAR E. CHAVEZ HIGH,CA,0610860,CA,4054,2092,1962,0,332,3635,17,58,1,11,22.25,182.22,449.48,0,0,14535000,57249000,12391000,19937,1039,"66,844","4,340","1,108"
39.1469,-123.2112,0,UKIAH UNIFIED,SOUTH VALLEY HIGH (CONTINUATION),CA,0640300,CA,1984,2979,2822,261,66,3366,27,1793,4,284,20.05,289.96,680.24,0.27,0,32168000,60469000,17255000,18507,468,"39,219","6,835","1,000"
41.048943,-123.675565,0,KLAMATH-TRINITY JOINT UNIFIED,CAPTAIN JOHN CONTINUATION HIGH,CA,0619950,CA,296,492,447,756,1,59,4,103,1,15,16.89,55.61,159.3,0,0,3687000,11194000,10438000,25575,90,"6,319","1,197",215
33.9299,-117.8755,0,BREA-OLINDA UNIFIED,BREA CANYON HIGH (CONTINUATION),CA,0605880,CA,1768,3055,2840,6,1838,2311,77,1309,19,335,22.95,256.81,560.61,0,0,61044000,26021000,6462000,15614,428,"42,318","6,981",433
37.329189,-119.632529,0,YOSEMITE UNIFIED,EVERGREEN HIGH,CA,0600160,CA,645,725,683,55,23,385,10,837,0,98,19.93,70.94,164.43,0,0,10372000,10903000,3023000,17814,144,"23,702","2,338",288
41.737102,-122.63841,0,YREKA UNION HIGH,DISCOVERY HIGH,CA,0643410,CA,692,375,313,48,20,116,3,396,1,104,17.4,39.77,74.11,0,0,5932000,6018000,1456000,19234,180,"17,406",880,170
36.602202,-118.060607,0,LONE PINE UNIFIED,LONE PINE HIGH,CA,0622440,CA,104,141,158,27,4,176,0,65,0,27,16.73,17.87,36.84,0,0,5359000,1001000,919000,22466,25,"2,367",339,60
40.416689,-120.65952,0,LASSEN UNION HIGH,CREDENCE HIGH,CA,0621060,CA,845,412,421,18,13,204,8,460,22,108,19.19,44.03,90.66,0,0,4897000,6454000,841000,14832,188,"23,554","1,145",158
33.124833,-115.524939,0,CALIPATRIA UNIFIED,CALIPATRIA HIGH,CA,0606990,CA,334,533,553,1,3,982,31,61,0,8,17.21,63.1,140.96,0,0,7517000,12045000,3216000,20211,94,"8,636","1,265",333
39.367916,-121.683913,0,GRIDLEY UNIFIED,GRIDLEY HIGH,CA,0600051,CA,672,1020,973,9,68,1171,15,679,3,48,19.92,100.15,202.47,0,0,6446000,26496000,4881000,18184,171,"11,844","2,173",429
39.321391,-123.104972,0,POTTER VALLEY COMMUNITY UNIFIED,POTTER VALLEY HIGH,CA,0631400,CA,81,154,123,12,0,96,1,157,0,11,15.94,17.38,41.83,0,0,1792000,3991000,488000,23140,24,"2,156",343,46
39.522386,-122.201828,0,WILLOWS UNIFIED,WILLOWS HIGH,CA,0642710,CA,449,715,642,38,54,715,15,504,1,30,20.89,64.97,165.88,0,0,6643000,12200000,2559000,15702,129,"9,261","1,852",280
34.902,-117.0257,0,BARSTOW UNIFIED,CENTRAL HIGH (CONTINUATION),CA,0604020,CA,1626,3216,3102,41,61,3587,1184,989,52,404,24.4,258.95,601.2,0,0,10295000,70502000,18828000,16255,342,"35,707","7,696","2,326"
33.039146,-116.86352,0,RAMONA CITY UNIFIED,MONTECITO HIGH (CONTINUATION),CA,0631710,CA,1695,2641,2436,21,31,2389,33,2278,4,321,22.29,227.82,558.76,0.25,0,30824000,31052000,7332000,13650,399,"36,549","6,327",477
33.2812,-117.0252,0,VALLEY CENTER-PAUMA UNIFIED,OAK GLEN HIGH,CA,0600069,CA,1218,1890,1821,307,51,2337,20,765,3,228,21.89,169.5,401.2,0.5,0,24518000,23543000,9944000,15008,326,"27,179","4,332",383
37.161478,-118.2886,0,BIG PINE UNIFIED,BIG PINE HIGH,CA,0604950,CA,26,89,62,44,0,50,0,36,0,21,11.38,13.27,24.76,0,0,3236000,566000,927000,30510,10,"1,919",309,57
38.44786,-121.820126,0,DIXON UNIFIED,MAINE PRAIRIE HIGH (CONTINUATION),CA,0611280,CA,1090,1601,1432,11,102,1839,76,764,15,226,23.27,130.52,257.62,1,0,17432000,25343000,5558000,16351,242,"22,078","4,041",315
39.762169,-121.611974,0,PARADISE UNIFIED,RIDGEVIEW HIGH (CONTINUATION),CA,0629820,CA,593,870,780,25,21,297,10,1179,4,114,19.41,85.39,220.34,0,0,8181000,35555000,8511000,34082,136,"13,837","1,773",261
38.89608,-121.068531,0,PLACER UNION HIGH,MAIDU VIRTUAL CHARTER ACADEMY,CA,0630750,CA,3975,1998,1959,30,84,698,22,2745,8,370,21.9,181.47,383.76,1,0,45876000,37385000,4069000,21452,995,"95,751","5,182",272
38.914628,-122.604655,0,KONOCTI UNIFIED,CARLE (WILLIAM C.) HIGH (CONTINUATION),CA,0620070,CA,1088,1988,1875,91,17,2107,72,1238,5,333,25.02,154.83,457.6,0,0,12771000,40161000,9711000,17386,214,"24,624","4,266","1,163"
40.139068,-120.144221,0,FORT SAGE UNIFIED,HERLONG HIGH,CA,0600011,CA,78,107,120,5,0,43,5,156,0,18,14.31,16,30.45,0,0,639000,3307000,483000,20132,20,"2,537",275,71
33.8385,-117.247,0,VAL VERDE UNIFIED,VAL VERDE HIGH,CA,0691135,CA,6710,10007,9347,46,501,15507,2079,679,44,498,21.6,896.2,1926.45,1,0,82939000,367123000,100343000,28514,1599,"91,762","19,648","3,061"
33.077249,-116.595285,0,JULIAN UNION HIGH,JULIAN HIGH,CA,0619110,CA,118,64,53,3,1,61,1,46,1,4,14.84,7.95,19.19,0,0,2439000,913000,530000,36623,19,"4,574",202,17
39.439564,-123.790385,0,FORT BRAGG UNIFIED,NOYO HIGH (CONTINUATION),CA,0614070,CA,563,872,798,12,16,797,5,662,3,175,16.44,102.06,245.54,0,0,11647000,15914000,5240000,19352,141,"14,207","1,872",279
34.492021,-118.215978,0,ACTON-AGUA DULCE UNIFIED,VASQUEZ HIGH,CA,0600001,CA,375,553,467,3,18,584,18,371,0,26,19.83,51.48,132.48,0,0,9836000,11464000,2116000,25480,74,"11,850","1,744",177
39.413697,-123.35587,0,WILLITS UNIFIED,SANHEDRIN ALTERNATIVE,CA,0642560,CA,464,833,706,64,10,503,8,437,0,517,18.29,84.52,179.92,0,0,7246000,14372000,3567000,16745,125,"13,456","2,264",389
35.6741,-119.2307,0,MCFARLAND UNIFIED,MCFARLAND HIGH SCHOOL EARLY COLLEGE,CA,0624230,CA,1022,1723,1551,0,25,3203,8,11,1,26,22.02,148.66,350.06,0,0,12370000,42212000,9971000,18738,289,"15,010","3,786","1,110"
39.521613,-121.56822,0,OROVILLE UNION HIGH,PROSPECT HIGH (CONTINUATION),CA,0629130,CA,2264,1138,1120,130,305,501,64,1067,21,170,20.48,110.57,269.9,0,0,14779000,24582000,5798000,19348,507,"54,458","3,117",694
38.810638,-123.022709,0,CLOVERDALE UNIFIED,CLOVERDALE HIGH,CA,0608970,CA,411,689,614,32,10,793,7,400,0,61,18.73,69.58,146.48,0,0,14520000,5695000,2209000,16610,98,"10,996","1,568",120
41.795543,-123.378128,0,SISKIYOU UNION HIGH,HAPPY CAMP HIGH,CA,0636940,CA,515,273,238,27,10,77,14,287,0,96,14.35,35.9,61.62,0,0,5750000,4563000,1940000,22818,114,"15,443",760,123
36.143243,-119.063831,0,PORTERVILLE UNIFIED,HARMONY MAGNET ACADEMY,CA,0600064,CA,6826,7158,6801,296,265,11752,46,1311,39,250,22.29,626.38,1434.73,0,0,33988000,199183000,43536000,19253,1537,"103,090","16,022","4,192"
34.840118,-114.615779,0,NEEDLES UNIFIED,NEEDLES HIGH,CA,0626760,CA,289,467,463,112,11,321,36,397,2,51,18.42,50.5,116.61,0,0,5394000,13349000,4998000,24551,90,"7,123","1,073",238
40.699594,-124.194066,0,FORTUNA UNION HIGH,ACADEMY OF THE REDWOODS,CA,0614190,CA,1083,561,513,42,11,336,1,599,0,85,18.96,57.13,85.87,0,0,7133000,9536000,1935000,16348,234,"22,426","1,163",196
39.689695,-123.488983,0,LAYTONVILLE UNIFIED,LAYTONVILLE HIGH,CA,0642580,CA,99,177,138,31,7,64,1,167,0,45,14.87,21.19,54.52,0,0,3771000,4320000,983000,25206,26,"2,999",426,184
40.876422,-124.08907,0,NORTHERN HUMBOLDT UNION HIGH,SIX RIVERS CHARTER HIGH,CA,0603030,CA,1756,864,877,109,40,272,20,1048,6,246,18.4,95.41,193.85,0.1,0,13643000,13056000,2809000,17765,414,"45,853","1,814",254
37.037211,-119.455026,0,SIERRA UNIFIED,SIERRA HIGH,CA,0636805,CA,446,679,613,175,19,280,6,723,0,89,18.54,69.7,174.22,0,0,10162000,8988000,2174000,17711,101,"10,539","1,632",158
39.7612,-121.6136,0,PARADISE UNIFIED,PARADISE SENIOR HIGH,CA,0629820,CA,593,870,780,25,21,297,10,1179,4,114,19.41,85.39,220.34,0,0,8181000,35555000,8511000,34082,136,"13,837","1,773",261
37.48918,-119.964119,0,MARIPOSA COUNTY UNIFIED,MARIPOSA COUNTY HIGH,CA,0623940,CA,529,875,787,56,17,416,17,1007,2,147,18.71,89.19,225.64,0,0,17621000,8977000,2989000,18446,149,"16,734","2,225",484
39.437776,-123.788159,0,FORT BRAGG UNIFIED,FORT BRAGG HIGH,CA,0614070,CA,563,872,798,12,16,797,5,662,3,175,16.44,102.06,245.54,0,0,11647000,15914000,5240000,19352,141,"14,207","1,872",279
37.329189,-119.632529,0,YOSEMITE UNIFIED,YOSEMITE HIGH,CA,0600160,CA,645,725,683,55,23,385,10,837,0,98,19.93,70.94,164.43,0,0,10372000,10903000,3023000,17814,144,"23,702","2,338",288
39.745508,-122.019438,0,HAMILTON UNIFIED,HAMILTON HIGH,CA,0601339,CA,310,353,362,4,11,600,0,49,0,51,17.46,40.95,75.85,0,0,2626000,7373000,1668000,16456,77,"3,114",542,114
34.607493,-120.100475,0,SANTA YNEZ VALLEY UNION HIGH,SANTA YNEZ VALLEY UNION HIGH,CA,0635850,CA,862,441,416,5,4,415,4,392,0,37,19.26,44.75,95.8,0,0,14324000,1497000,630000,19041,180,"22,333","1,330",95
41.427915,-122.372932,0,SISKIYOU UNION HIGH,WEED HIGH,CA,0636940,CA,515,273,238,27,10,77,14,287,0,96,14.35,35.9,61.62,0,0,5750000,4563000,1940000,22818,114,"15,443",760,123
38.522714,-121.973787,0,WINTERS JOINT UNIFIED,WOLFSKILL HIGH,CA,0642930,CA,457,792,787,3,16,1034,26,455,5,40,19.55,80.77,180.15,0.17,0,6291000,16984000,3306000,17396,133,"9,458","1,733",163
39.755775,-122.191671,0,ORLAND JOINT UNIFIED,NORTH VALLEY HIGH (CONTINUATION),CA,0600045,CA,849,1175,1065,31,34,1508,6,630,2,29,20.86,107.48,246.17,0,0,9008000,21118000,6198000,16187,189,"14,588","2,843",424
39.865151,-123.716714,0,LEGGETT VALLEY UNIFIED,LEGGETT VALLEY HIGH,CA,0609665,CA,26,63,56,2,1,32,2,71,1,10,10.31,11.74,58.24,0,0,496000,2223000,256000,22201,13,611,76,37
35.655091,-120.377705,0,SHANDON JOINT UNIFIED,SHANDON HIGH,CA,0636450,CA,85,133,120,0,0,222,3,28,0,0,13.96,18.12,43.36,0,0,3094000,2972000,690000,23957,16,"1,762",343,24
37.066856,-120.842245,0,LOS BANOS UNIFIED,SAN LUIS HIGH (CONTINUATION),CA,0622740,CA,3593,5631,5419,20,170,9601,129,961,63,106,23.74,465.68,985.8,0,0,32240000,132250000,24783000,17432,804,"50,942","11,870","2,333"
36.925282,-119.896503,0,GOLDEN VALLEY UNIFIED,INDEPENDENCE CONTINUATION HIGH,CA,0600068,CA,786,1447,1327,30,172,1374,54,1071,3,70,21.94,126.44,271.99,0.13,0,15750000,15283000,2267000,15941,175,"12,921","2,445",247
40.739653,-122.947791,0,TRINITY ALPS UNIFIED,ALPS VIEW HIGH (CONTINUATION),CA,0601331,CA,314,324,332,26,6,58,7,500,1,58,16.99,38.67,96.92,0,0,4067000,29925000,2297000,52214,94,"8,450",889,167
39.275583,-122.199794,0,MAXWELL UNIFIED,MAXWELL SR HIGH,CA,0624150,CA,116,184,166,7,1,197,0,144,0,1,17.07,20.5,44.78,0,0,1758000,2987000,641000,16572,22,"1,751",333,71
39.416099,-121.70606,0,BIGGS UNIFIED,BIGGS HIGH,CA,0605040,CA,177,298,249,3,11,216,13,300,2,2,16.8,32.62,64.75,0.15,0,3288000,12724000,945000,30119,30,"3,588",721,103
36.5483,-119.2873,0,CUTLER-OROSI JOINT UNIFIED,OROSI HIGH,CA,0610350,CA,1155,1955,1870,3,114,3670,5,24,5,4,19.95,191.73,536.38,0,0,8538000,65266000,18244000,22972,276,"17,743","4,018","1,132"
34.412835,-117.382453,0,HESPERIA UNIFIED,CANYON RIDGE HIGH,CA,0600014,CA,7779,12139,11243,46,239,17754,1485,3327,76,455,23.93,976.94,2156.85,0,0,42021000,254150000,45671000,15591,1827,"110,384","23,765","4,941"
38.1998,-120.6843,0,CALAVERAS UNIFIED,GOLD STRIKE HIGH,CA,0606870,CA,854,1549,1295,37,24,729,16,1835,8,195,21.15,134.55,257.72,0,0,26721000,9183000,6361000,15741,222,"26,595","3,733",531
37.981807,-120.379607,0,SONORA UNION HIGH,THEODORE BIRD HIGH,CA,0637260,CA,1092,565,519,18,22,236,8,709,3,88,24.22,45.09,113.51,0,0,11994000,3699000,1813000,17129,242,"39,150","1,791",212
39.0102,-122.0555,0,PIERCE JOINT UNIFIED,PIERCE HIGH,CA,0630360,CA,511,759,735,1,15,1196,14,251,1,16,20.42,73.17,131.47,0,0,8207000,14241000,3174000,17756,115,"7,037","1,416",117
40.95522,-124.109117,0,NORTHERN HUMBOLDT UNION HIGH,MAD RIVER HIGH (CONTINUATION),CA,0603030,CA,1756,864,877,109,40,272,20,1048,6,246,18.4,95.41,193.85,0.1,0,13643000,13056000,2809000,17765,414,"45,853","1,814",254
40.157733,-122.242427,0,RED BLUFF JOINT UNION HIGH,SALISBURY HIGH (CONTINUATION),CA,0632010,CA,1709,908,792,44,32,634,15,904,5,66,19.41,88.03,211.62,0,0,11005000,14893000,3351000,16268,418,"43,610","2,566",419
39.751814,-122.191642,0,ORLAND JOINT UNIFIED,ORLAND HIGH,CA,0600045,CA,849,1175,1065,31,34,1508,6,630,2,29,20.86,107.48,246.17,0,0,9008000,21118000,6198000,16187,189,"14,588","2,843",424
36.98581,-120.622647,0,DOS PALOS ORO LOMA JOINT UNIFIED,DOS PALOS HIGH,CA,0600033,CA,706,1173,1094,29,6,1914,43,249,1,25,21.81,104.08,272.18,0,0,6665000,26669000,8529000,18265,177,"11,631","2,653",636
34.417788,-117.577601,0,SNOWLINE JOINT UNIFIED,CHAPARRAL HIGH,CA,0636970,CA,2408,4082,3882,32,100,4826,372,1925,31,678,22.14,359.77,882,0,0,17273000,88467000,12671000,16099,599,"41,946","8,289","1,250"
37.6368,-120.7749,0,WATERFORD UNIFIED,WATERFORD HIGH,CA,0600063,CA,617,857,876,3,34,1181,24,442,8,41,21,82.71,232.31,0,0,8493000,21246000,10403000,22178,163,"10,292","2,300",247
38.6937,-120.8219,0,EL DORADO UNION HIGH,INDEPENDENCE CONTINUATION,CA,0612070,CA,6541,3374,3150,70,482,1268,58,4275,13,358,22.93,285.26,581.94,1.7,0,48399000,40330000,7816000,14102,1615,"148,323","7,714",489
34.799712,-118.891466,0,EL TEJON UNIFIED,FRAZIER MOUNTAIN HIGH,CA,0600026,CA,242,365,345,5,15,347,6,307,3,27,20.4,34.91,103.8,0,0,5770000,4427000,2127000,17631,63,"7,920","1,171",147
38.89608,-121.068531,0,PLACER UNION HIGH,CONFLUENCE CONTINUATION HIGH,CA,0630750,CA,3975,1998,1959,30,84,698,22,2745,8,370,21.9,181.47,383.76,1,0,45876000,37385000,4069000,21452,995,"95,751","5,182",272
34.457682,-116.938836,0,LUCERNE VALLEY UNIFIED,LUCERNE VALLEY HIGH,CA,0600015,CA,314,572,534,5,3,635,25,409,2,27,16.82,65.8,150.51,0,0,3238000,12157000,2968000,21783,55,"6,363","1,042",266
36.6012,-119.4559,0,KINGS CANYON JOINT UNIFIED,REEDLEY HIGH,CA,0619700,CA,3193,4992,4665,27,83,8506,26,783,4,228,21.83,442.47,1116.99,1.27,0,27112000,121801000,29584000,18528,724,"47,302","10,106","2,376"
41.460978,-122.898945,0,SCOTT VALLEY UNIFIED,ETNA UNION HIGH,CA,0600159,CA,207,328,296,58,6,77,6,362,2,113,16.72,37.32,101.64,0,0,3404000,9488000,1815000,24031,52,"5,117",825,160
39.165055,-122.90228,0,UPPER LAKE UNIFIED,UPPER LAKE HIGH,CA,0601442,CA,345,501,453,85,5,310,9,465,3,77,19.07,50.03,122.81,0,0,4439000,8082000,2509000,17641,82,"9,395","1,055",261
41.321703,-122.305422,0,SISKIYOU UNION HIGH,MOUNT SHASTA HIGH,CA,0636940,CA,515,273,238,27,10,77,14,287,0,96,14.35,35.9,61.62,0,0,5750000,4563000,1940000,22818,114,"15,443",760,123
40.739653,-122.947791,0,TRINITY ALPS UNIFIED,TRINITY HIGH,CA,0601331,CA,314,324,332,26,6,58,7,500,1,58,16.99,38.67,96.92,0,0,4067000,29925000,2297000,52214,94,"8,450",889,167
33.9172,-116.8782,0,BANNING UNIFIED,BANNING HIGH,CA,0603840,CA,1279,2252,2059,80,188,3233,283,386,2,139,21.37,202.01,566.56,0,0,20682000,51683000,15291000,19742,263,"36,037","5,510",915
38.909721,-120.01469,0,LAKE TAHOE UNIFIED,SOUTH TAHOE HIGH,CA,0620640,CA,1218,1878,1713,16,125,1645,11,1632,6,156,20.14,178.93,360.09,0,0,28190000,24349000,5236000,15510,274,"29,709","3,727",311
35.382236,-120.859815,0,SAN LUIS COASTAL UNIFIED,MORRO BAY HIGH,CA,0634800,CA,2513,3879,3670,22,367,2302,56,4235,12,555,20.78,364.68,855.14,1,0,102542000,21660000,13892000,18834,613,"93,406","8,709",734
39.165715,-121.755023,0,SUTTER UNION HIGH,SUTTER HIGH,CA,0638610,CA,795,428,367,6,24,237,2,467,0,59,20.79,38.24,73.54,0,0,3277000,6913000,767000,13561,222,"7,497",508,60
41.741323,-122.637766,0,YREKA UNION HIGH,YREKA HIGH,CA,0643410,CA,692,375,313,48,20,116,3,396,1,104,17.4,39.77,74.11,0,0,5932000,6018000,1456000,19234,180,"17,406",880,170
34.127296,-116.371192,0,MORONGO UNIFIED,BLACK ROCK ALTERNATIVE/CONTINUATION,CA,0625860,CA,2122,3770,3581,48,169,2792,586,3349,72,335,20.97,350.9,805.11,0,0,20505000,95670000,26387000,17809,390,"71,526","9,495","1,732"
41.049687,-123.674812,0,KLAMATH-TRINITY JOINT UNIFIED,HOOPA VALLEY HIGH,CA,0619950,CA,296,492,447,756,1,59,4,103,1,15,16.89,55.61,159.3,0,0,3687000,11194000,10438000,25575,90,"6,319","1,197",215
37.4756,-121.1403,0,PATTERSON JOINT UNIFIED,DEL PUERTO HIGH,CA,0630030,CA,2078,3146,2989,23,261,4742,269,522,84,234,21.64,283.68,664.62,0,0,25539000,62380000,18155000,17644,469,"28,789","6,427",768
37.584261,-120.933864,0,CERES UNIFIED,WHITMORE CHARTER HIGH,CA,0608130,CA,4472,7041,6826,50,796,11236,178,1411,69,127,23.07,601.12,1512.95,2,0,33669000,175404000,32315000,16938,1021,"57,535","12,413","1,972"
34.3563,-119.0705,0,SANTA PAULA UNIFIED,SANTA PAULA HIGH,CA,0601421,CA,1784,2455,2353,6,23,4563,13,178,4,21,21.25,226.29,594.64,1,0,19666000,60412000,13311000,18380,392,"32,470","5,513",865
38.416176,-121.529882,0,RIVER DELTA JOINT UNIFIED,DELTA HIGH,CA,0633110,CA,635,886,867,11,30,1040,44,503,12,113,18.62,94.15,219.91,0,0,15014000,12050000,2906000,15993,175,"17,623","2,055",175
40.236916,-123.823514,0,SOUTHERN HUMBOLDT JOINT UNIFIED,SOUTH FORK HIGH,CA,0637590,CA,220,335,308,28,4,141,3,424,2,41,16.96,38.04,99.96,0,0,6610000,10704000,1552000,28327,52,"7,836",935,295
41.491957,-120.542168,0,MODOC JOINT UNIFIED,MODOC HIGH,CA,0625190,CA,247,400,406,52,6,159,13,521,5,50,17.47,46.36,105.91,0,0,3460000,7339000,2008000,15733,50,"5,953",914,242
40.780824,-124.173418,0,EUREKA CITY SCHOOLS,ZOE BARNUM HIGH,CA,0600052,CA,1301,1876,1661,151,377,947,63,1515,57,427,23.76,148.9,461.7,1,0,22957000,29166000,9360000,17368,309,"48,587","5,650",993
37.7994,-120.9937,0,ESCALON UNIFIED,ESCALON HIGH,CA,0612840,CA,852,1368,1356,9,46,1435,22,1138,9,65,20.61,132.2,261.58,0,0,11029000,24962000,3405000,13247,186,"18,517","2,969",258
38.154644,-121.696653,0,RIVER DELTA JOINT UNIFIED,RIO VISTA HIGH,CA,0633110,CA,635,886,867,11,30,1040,44,503,12,113,18.62,94.15,219.91,0,0,15014000,12050000,2906000,15993,175,"17,623","2,055",175
35.0488,-120.4884,0,LUCIA MAR UNIFIED,NIPOMO HIGH,CA,0623080,CA,3347,5034,4561,22,200,4802,40,3928,11,592,19.51,493.21,1076.37,0,0,90670000,39829000,15084000,14674,791,"79,641","10,959","1,297"
35.771738,-119.268145,0,DELANO JOINT UNION HIGH,ROBERT F. KENNEDY HIGH,CA,0610860,CA,4054,2092,1962,0,332,3635,17,58,1,11,22.25,182.22,449.48,0,0,14535000,57249000,12391000,19937,1039,"66,844","4,340","1,108"
39.200208,-122.019514,0,COLUSA UNIFIED,COLUSA HIGH,CA,0609570,CA,502,775,688,47,12,1072,12,277,3,40,20.28,72.19,150.97,0,0,4924000,14373000,2455000,14226,104,"7,912","1,533",227
38.911757,-121.5268,0,EAST NICOLAUS JOINT UNION HIGH,EAST NICOLAUS HIGH,CA,0611780,CA,299,155,144,2,4,90,5,177,3,18,17.95,16.66,40.56,0,0,1698000,3016000,458000,16738,88,"2,569",148,10
35.121683,-118.434471,0,TEHACHAPI UNIFIED,TEHACHAPI HIGH,CA,0638880,CA,1301,2182,2035,21,50,1653,52,2243,9,189,23.67,178.27,490.85,0.5,0,17296000,34245000,7080000,14762,293,"35,530","5,923",688
35.137807,-117.975586,0,MOJAVE UNIFIED,CALIFORNIA CITY HIGH,CA,0625230,CA,833,1488,1351,12,33,1487,749,349,9,200,23.98,118.51,364.26,0,0,17362000,24722000,6423000,16907,153,"20,289","3,845","1,289"
36.794639,-119.914231,0,CENTRAL UNIFIED,JUSTIN GARZA HIGH,CA,0607970,CA,4886,8163,7785,79,2749,9776,1228,1719,32,365,23.25,686.17,1741.37,6,0,45982000,171379000,33281000,15922,1014,"81,900","17,645","3,697"
39.934597,-122.172679,0,CORNING UNION HIGH,CORNING HIGH,CA,0609810,CA,1057,560,495,17,18,712,7,266,3,32,18.04,58.58,125.58,0,0,4932000,12186000,4157000,19465,295,"17,837","1,170",208
34.112789,-116.424533,0,MORONGO UNIFIED,YUCCA VALLEY HIGH,CA,0625860,CA,2122,3770,3581,48,169,2792,586,3349,72,335,20.97,350.9,805.11,0,0,20505000,95670000,26387000,17809,390,"71,526","9,495","1,732"
36.5413,-119.3864,0,DINUBA UNIFIED,DINUBA HIGH,CA,0600065,CA,2264,3262,3051,44,98,5841,22,290,8,10,22.89,275.75,682.56,1,0,12308000,103283000,18909000,20256,526,"31,619","6,947","1,668"
39.479872,-121.537645,0,OROVILLE UNION HIGH,LAS PLUMAS HIGH,CA,0629130,CA,2264,1138,1120,130,305,501,64,1067,21,170,20.48,110.57,269.9,0,0,14779000,24582000,5798000,19348,507,"54,458","3,117",694
39.514365,-121.545216,0,OROVILLE UNION HIGH,OROVILLE HIGH,CA,0629130,CA,2264,1138,1120,130,305,501,64,1067,21,170,20.48,110.57,269.9,0,0,14779000,24582000,5798000,19348,507,"54,458","3,117",694
34.531408,-117.44,0,VICTOR VALLEY UNION HIGH,ADELANTO HIGH,CA,0636972,CA,8623,5889,5654,25,305,8024,1933,681,32,543,22.65,510.7,1064.73,1,0,34920000,129746000,30635000,18354,1866,"184,577","19,265","4,300"
37.578978,-120.959502,0,CERES UNIFIED,CENTRAL VALLEY HIGH,CA,0608130,CA,4472,7041,6826,50,796,11236,178,1411,69,127,23.07,601.12,1512.95,2,0,33669000,175404000,32315000,16938,1021,"57,535","12,413","1,972"
40.416316,-120.656029,0,LASSEN UNION HIGH,LASSEN HIGH,CA,0621060,CA,845,412,421,18,13,204,8,460,22,108,19.19,44.03,90.66,0,0,4897000,6454000,841000,14832,188,"23,554","1,145",158
35.282735,-119.111162,0,KERN HIGH,INDEPENDENCE HIGH,CA,0619540,CA,43116,21941,21152,227,1587,30941,2318,7083,124,813,23.57,1828.94,3770.04,1.65,0,187409000,459406000,93759000,17479,9297,"666,555","46,951","10,177"
39.768671,-85.517734,0,NEW CASTLE COMMUNITY SCHOOL CORP,NEW CASTLE SCHOOLS AT THE HOOSIER YOUTH CHALLENGE ACADEMY,IN,1807440,IN,900,1526,1423,1,25,162,61,2513,0,187,12.24,241.01,574.01,0,7,10679000,22496000,5842000,13222,182,"22,748","3,485",633
36.754982,-120.390303,0,MENDOTA UNIFIED,MENDOTA COMMUNITY DAY,CA,0600022,CA,1126,1978,1971,0,12,3892,2,39,0,4,22.57,174.98,369.76,0,0,6826000,46449000,11918000,17773,214,"14,162","3,310",889
37.320531,-121.024049,0,NEWMAN-CROWS LANDING UNIFIED,FOOTHILL COMMUNITY DAY,CA,0627200,CA,1043,1606,1555,4,49,2567,63,380,4,94,19.46,162.42,407.46,0,0,11536000,33300000,6752000,16056,254,"16,065","3,603",439
36.0083,-120.1253,0,REEF-SUNSET UNIFIED,REEF-SUNSET SECONDARY COMMUNITY DAY,CA,0632270,CA,780,1400,1287,2,25,2617,2,38,2,1,22.04,121.94,308.13,1,0,3897000,35048000,7208000,16918,176,"15,151","2,651",746
36.501564,-119.288607,0,CUTLER-OROSI JOINT UNIFIED,CUTLER-OROSI COMMUNITY DAY,CA,0610350,CA,1155,1955,1870,3,114,3670,5,24,5,4,19.95,191.73,536.38,0,0,8538000,65266000,18244000,22972,276,"17,743","4,018","1,132"
36.0977,-119.5709,0,CORCORAN JOINT UNIFIED,MISSION COMMUNITY DAY,CA,0609690,CA,953,1614,1586,9,17,2950,74,135,1,14,20.63,155.16,326.79,0,0,5048000,47615000,8609000,18812,186,"23,243","3,486",959
36.925282,-119.896503,0,GOLDEN VALLEY UNIFIED,LINCOLN COMMUNITY DAY,CA,0600068,CA,786,1447,1327,30,172,1374,54,1071,3,70,21.94,126.44,271.99,0.13,0,15750000,15283000,2267000,15941,175,"12,921","2,445",247
36.616741,-119.529508,0,PARLIER UNIFIED,SAN JOAQUIN VALLEY HIGH,CA,0629910,CA,990,1691,1535,10,8,3155,10,31,2,10,20.13,160.26,436.41,0,0,5523000,44328000,13166000,18448,250,"15,417","3,691","1,081"
39.756777,-122.191703,0,ORLAND JOINT UNIFIED,ORLAND COMMUNITY DAY,CA,0600045,CA,849,1175,1065,31,34,1508,6,630,2,29,20.86,107.48,246.17,0,0,9008000,21118000,6198000,16187,189,"14,588","2,843",424
36.5696,-119.6192,0,SELMA UNIFIED,HEARTLAND HIGH (CONTINUATION),CA,0636270,CA,1961,3010,2962,17,199,5466,22,239,7,22,21.06,283.66,712.22,0,0,17586000,65784000,20386000,17150,402,"30,114","6,513","1,408"
39.006668,-121.430745,0,WHEATLAND UNION HIGH,WHEATLAND COMMUNITY DAY HIGH,CA,0642350,CA,1091,579,510,10,73,368,39,449,9,141,20.6,52.95,136.85,0,0,5331000,8498000,1222000,16149,252,"17,356",946,88
36.85181,-120.07294,0,MADERA UNIFIED,RIPPERDAN COMMUNITY DAY,CA,0623340,CA,6229,10233,9903,97,264,18343,228,866,2,336,22.61,890.76,2190.87,5.14,0,56836000,255828000,55652000,18470,1282,"96,382","22,141","5,958"
39.561578,-120.82735,0,SIERRA-PLUMAS JOINT UNIFIED,DOWNIEVILLE JUNIOR-SENIOR HIGH,CA,0636780,CA,130,210,193,5,0,65,2,294,3,34,14.27,28.24,63.51,0,0,3293000,2594000,936000,17273,29,"3,872",527,71
36.446817,-119.125035,0,WOODLAKE UNIFIED,WOODLAKE COMMUNITY DAY,CA,0601418,CA,711,1033,1051,12,14,1891,1,164,0,2,20.28,102.79,242.67,0,0,6174000,25288000,9265000,19684,173,"12,608","2,312",567
36.704797,-119.553716,0,SANGER UNIFIED,COMMUNITY DAY,CA,0635250,CA,4093,6731,6518,24,1884,9240,161,1380,18,542,22.67,584.46,1291.73,0,0,74448000,144716000,29831000,19722,908,"58,923","12,885","2,145"
36.729171,-120.065428,0,KERMAN UNIFIED,ENTERPRISE HIGH,CA,0619490,CA,1724,2674,2629,22,200,4675,16,344,5,41,22.45,236.29,534.81,0,0,12799000,62590000,15772000,17430,431,"21,676","4,853",856
36.705407,-119.562346,0,SANGER UNIFIED,KINGS RIVER HIGH (CONTINUATION),CA,0635250,CA,4093,6731,6518,24,1884,9240,161,1380,18,542,22.67,584.46,1291.73,0,0,74448000,144716000,29831000,19722,908,"58,923","12,885","2,145"
34.9016,-117.0256,0,BARSTOW UNIFIED,BUSD SCHOOL OF OPPORTUNITY,CA,0604020,CA,1626,3216,3102,41,61,3587,1184,989,52,404,24.4,258.95,601.2,0,0,10295000,70502000,18828000,16255,342,"35,707","7,696","2,326"
41.051421,-121.402229,0,FALL RIVER JOINT UNIFIED,FALL RIVER COMMUNITY DAY,CA,0613470,CA,355,624,536,112,1,322,2,619,4,100,17.1,67.85,154.74,0,0,6053000,11074000,2461000,16433,84,"7,735","1,140",124
39.01201,-123.375001,0,ANDERSON VALLEY UNIFIED,ANDERSON VALLEY JUNIOR-SENIOR HIGH,CA,0602730,CA,140,202,190,0,0,309,2,80,0,1,16.61,23.6,66.01,0,0,3906000,3716000,1544000,21120,45,"3,103",486,83
32.74958,-114.598281,0,SAN PASQUAL VALLEY UNIFIED,SAN PASQUAL VOCATIONAL ACADEMY,CA,0635070,CA,204,290,298,266,0,285,2,15,0,20,13.85,42.52,109.97,0,0,2386000,8020000,6610000,27941,38,"2,959",635,171
35.979067,-116.272658,0,DEATH VALLEY UNIFIED,DEATH VALLEY HIGH ACADEMY,CA,0610680,CA,2,8,9,0,0,8,0,6,0,3,5.3,3.21,10.71,0,0,1114000,409000,183000,85300,0,831,44,10
38.979797,-122.838972,0,KELSEYVILLE UNIFIED,KELSEYVILLE COMMUNITY DAY,CA,0619320,CA,592,950,923,50,11,859,12,793,1,147,20.91,89.77,210.47,0,0,9069000,18194000,3659000,17720,139,"12,958","2,048",327
33.039146,-116.86352,0,RAMONA CITY UNIFIED,FUTURE BOUND INDEPENDENT STUDY SECONDARY,CA,0631710,CA,1695,2641,2436,21,31,2389,33,2278,4,321,22.29,227.82,558.76,0.25,0,30824000,31052000,7332000,13650,399,"36,549","6,327",477
34.417788,-117.577601,0,SNOWLINE JOINT UNIFIED,EAGLE SUMMIT COMMUNITY DAY,CA,0636970,CA,2408,4082,3882,32,100,4826,372,1925,31,678,22.14,359.77,882,0,0,17273000,88467000,12671000,16099,599,"41,946","8,289","1,250"
34.864731,-118.179847,0,SOUTHERN KERN UNIFIED,RARE EARTH HIGH (CONTINUATION),CA,0637620,CA,1016,1883,1796,10,57,2368,313,735,4,192,20.28,181.58,372.18,0,0,14910000,38088000,6229000,17596,196,"22,140","4,775",968
32.608083,-116.972286,0,SWEETWATER UNION HIGH,EAST HILLS ACADEMY,CA,0638640,CA,25666,18128,17094,150,3851,24532,1182,3937,131,1439,22.35,1576.2,3109.78,12.06,0,206524000,380594000,58846000,17430,6413,"487,445","42,473","5,655"
41.491258,-120.539751,0,MODOC JOINT UNIFIED,HIGH DESERT COMMUNITY DAY,CA,0625190,CA,247,400,406,52,6,159,13,521,5,50,17.47,46.36,105.91,0,0,3460000,7339000,2008000,15733,50,"5,953",914,242
36.602757,-118.060601,0,LONE PINE UNIFIED,SIERRA ALTERNATIVE LEARNING ACADEMY,CA,0622440,CA,104,141,158,27,4,176,0,65,0,27,16.73,17.87,36.84,0,0,5359000,1001000,919000,22466,25,"2,367",339,60
40.303946,-121.009227,0,WESTWOOD UNIFIED,WESTWOOD HIGH,CA,0642300,CA,56,105,87,13,0,39,1,137,0,2,15.84,12.12,22.39,0,0,854000,1961000,447000,17259,12,"1,543",229,55
